{"type":"FeatureCollection","features":[{"type":"Feature","id":"u_fc_poi_water.10","geometry":{"type":"Point","coordinates":[3.1242549,6.4657007]},"geometry_name":"geom","properties":{"state_code":"LA","source":"GRID","name":"Oke Agbo Public Tap Water","ward_code":"LASOJO07","alt_name":null,"type":"Waterworks","global_id":"000de2ad-6825-4320-a366-80ccf6f5000a"}},{"type":"Feature","id":"u_fc_poi_water.59","geometry":{"type":"Point","coordinates":[3.7370192,6.672176]},"geometry_name":"geom","properties":{"state_code":"LA","source":"GRID","name":"Borehole","ward_code":"LASEPE05","alt_name":null,"type":"Borehole","global_id":"0077457b-a59b-485b-8a2d-23c470fbde92"}},{"type":"Feature","id":"u_fc_poi_water.64","geometry":{"type":"Point","coordinates":[3.0745167,6.4078017]},"geometry_name":"geom","properties":{"state_code":"LA","source":"GRID","name":"Taffi Borehole","ward_code":"LASOJO15","alt_name":null,"type":"Borehole","global_id":"0081d26a-775a-4caa-a677-7282bdca991e"}},{"type":"Feature","id":"u_fc_poi_water.126","geometry":{"type":"Point","coordinates":[3.2933433,6.6394283]},"geometry_name":"geom","properties":{"state_code":"LA","source":"GRID","name":"3 Ademolu Efuwape Borehole","ward_code":"LASAMO31","alt_name":null,"type":"Borehole","global_id":"0128616a-09c2-4ded-89ab-64eae0fd2409"}},{"type":"Feature","id":"u_fc_poi_water.130","geometry":{"type":"Point","coordinates":[2.9240017,6.4437817]},"geometry_name":"geom","properties":{"state_code":"LA","source":"GRID","name":"Personal Borehole","ward_code":"LASBDY03","alt_name":null,"type":"Borehole","global_id":"012e1789-6b02-4ca8-893d-b62c57755335"}},{"type":"Feature","id":"u_fc_poi_water.171","geometry":{"type":"Point","coordinates":[3.5899965,6.682286]},"geometry_name":"geom","properties":{"state_code":"LA","source":"GRID","name":"Public Borehole Water Irewolede","ward_code":"LASIKU27","alt_name":null,"type":"Borehole","global_id":"01767037-4de0-4dda-a7e3-024cf9f49cb4"}},{"type":"Feature","id":"u_fc_poi_water.174","geometry":{"type":"Point","coordinates":[3.375913,6.4822467]},"geometry_name":"geom","properties":{"state_code":"LA","source":"GRID","name":"Ibadan Street tap Water Adeogun","ward_code":"LASLMD13","alt_name":null,"type":"Waterworks","global_id":"01776ad6-9dfb-49c4-b6dd-006bdc30e0c5"}},{"type":"Feature","id":"u_fc_poi_water.179","geometry":{"type":"Point","coordinates":[3.2859967,6.6543433]},"geometry_name":"geom","properties":{"state_code":"LA","source":"GRID","name":"Public Tap Water","ward_code":"LASAMO05","alt_name":null,"type":"Waterworks","global_id":"0186e4f4-1540-4ef9-8b34-e986bdb63c1a"}},{"type":"Feature","id":"u_fc_poi_water.190","geometry":{"type":"Point","coordinates":[3.26102,6.6539167]},"geometry_name":"geom","properties":{"state_code":"LA","source":"GRID","name":"El Shadai Boreheore Water","ward_code":"LASAMO11","alt_name":null,"type":"Borehole","global_id":"019dca7b-5cf9-42e1-9d07-2ade7d61943e"}},{"type":"Feature","id":"u_fc_poi_water.200","geometry":{"type":"Point","coordinates":[3.1097145,6.4582936]},"geometry_name":"geom","properties":{"state_code":"LA","source":"GRID","name":"Zone 5 Borehole","ward_code":"LASOJO03","alt_name":null,"type":"Borehole","global_id":"01ad3533-c4f9-4587-ac7c-9b3d4341a3b1"}},{"type":"Feature","id":"u_fc_poi_water.205","geometry":{"type":"Point","coordinates":[2.9344976,6.4407658]},"geometry_name":"geom","properties":{"state_code":"LA","source":"GRID","name":"Adenuga Street Borehole","ward_code":"LASBDY03","alt_name":null,"type":"Borehole","global_id":"01c51133-4553-41a7-a30d-ba4d4455706b"}},{"type":"Feature","id":"u_fc_poi_water.207","geometry":{"type":"Point","coordinates":[3.33567,6.4535483]},"geometry_name":"geom","properties":{"state_code":"LA","source":"GRID","name":"Rccg Corporate Social Responsibility Borehole","ward_code":"LASATO07","alt_name":null,"type":"Waterworks","global_id":"01cb3598-9196-4655-ad7f-c3abb21c2e5b"}},{"type":"Feature","id":"u_fc_poi_water.215","geometry":{"type":"Point","coordinates":[3.1592947,6.4834518]},"geometry_name":"geom","properties":{"state_code":"LA","source":"GRID","name":"Francis Ashaka Borehole Water","ward_code":"LASOJO01","alt_name":null,"type":"Borehole","global_id":"01e1a789-f000-4341-9b52-41a2d4a801af"}},{"type":"Feature","id":"u_fc_poi_water.229","geometry":{"type":"Point","coordinates":[3.2283987,6.5843498]},"geometry_name":"geom","properties":{"state_code":"LA","source":"GRID","name":"Akinremi Borehole","ward_code":"LASAMO15","alt_name":null,"type":"Borehole","global_id":"01ffc874-e7e6-4f32-a1c4-7e26b5fba490"}},{"type":"Feature","id":"u_fc_poi_water.238","geometry":{"type":"Point","coordinates":[2.8864816,6.4304899]},"geometry_name":"geom","properties":{"state_code":"LA","source":"GRID","name":"Ogo Oluwa Borehole","ward_code":"LASBDY02","alt_name":null,"type":"Well","global_id":"02143876-1151-4581-844a-5a13ee1a0dcb"}},{"type":"Feature","id":"u_fc_poi_water.272","geometry":{"type":"Point","coordinates":[3.2246867,6.4616467]},"geometry_name":"geom","properties":{"state_code":"LA","source":"GRID","name":"Mammi Public Borehole Water","ward_code":"LASOJO08","alt_name":null,"type":"Borehole","global_id":"0267c982-0820-4375-ab77-4ad6d33ad2f6"}},{"type":"Feature","id":"u_fc_poi_water.296","geometry":{"type":"Point","coordinates":[3.1476602,6.4921462]},"geometry_name":"geom","properties":{"state_code":"LA","source":"GRID","name":"Ola Jesu Tap Water Point","ward_code":"LASOJO13","alt_name":null,"type":"Waterworks","global_id":"02a2c148-66a3-4121-862a-04d024bd61a0"}},{"type":"Feature","id":"u_fc_poi_water.349","geometry":{"type":"Point","coordinates":[3.0099348,6.4751842]},"geometry_name":"geom","properties":{"state_code":"LA","source":"GRID","name":"Idomeigu Tap Water","ward_code":"LASBDY08","alt_name":null,"type":"Waterworks","global_id":"0308613f-cb5a-48d3-8e8c-f5c1772f8922"}},{"type":"Feature","id":"u_fc_poi_water.407","geometry":{"type":"Point","coordinates":[3.970445,6.584605]},"geometry_name":"geom","properties":{"state_code":"LA","source":"GRID","name":"Borehole","ward_code":"LASEPE04","alt_name":null,"type":"Borehole","global_id":"03691273-de73-4882-a678-653e7894c3a6"}},{"type":"Feature","id":"u_fc_poi_water.447","geometry":{"type":"Point","coordinates":[3.2151443,6.5264071]},"geometry_name":"geom","properties":{"state_code":"LA","source":"GRID","name":"Public Borehole Water 1","ward_code":"LASAMO08","alt_name":null,"type":"Borehole","global_id":"03d831bc-c63d-498c-b9fa-6856774b5336"}},{"type":"Feature","id":"u_fc_poi_water.468","geometry":{"type":"Point","coordinates":[4.0012468,6.5991758]},"geometry_name":"geom","properties":{"state_code":"LA","source":"GRID","name":"Public Tap","ward_code":"LASEPE11","alt_name":null,"type":"Waterworks","global_id":"03f61282-d0df-4cd7-ae59-3012f41da434"}},{"type":"Feature","id":"u_fc_poi_water.478","geometry":{"type":"Point","coordinates":[3.2937,6.6390133]},"geometry_name":"geom","properties":{"state_code":"LA","source":"GRID","name":"Dele Adeniran Borehole","ward_code":"LASAMO31","alt_name":null,"type":"Borehole","global_id":"0400dcd1-4a66-4a89-801b-59c1b84e5438"}},{"type":"Feature","id":"u_fc_poi_water.482","geometry":{"type":"Point","coordinates":[3.25937,6.5473133]},"geometry_name":"geom","properties":{"state_code":"LA","source":"GRID","name":"Borehole 1","ward_code":"LASAMO01","alt_name":null,"type":"Borehole","global_id":"040d7c41-ac46-43e0-a736-e358fef40578"}},{"type":"Feature","id":"u_fc_poi_water.486","geometry":{"type":"Point","coordinates":[3.1387183,6.45377]},"geometry_name":"geom","properties":{"state_code":"LA","source":"GRID","name":"Hairdressing Salon Tap Water","ward_code":"LASOJO03","alt_name":null,"type":"Waterworks","global_id":"0410cfd3-6001-4735-a03e-420424d13bb0"}},{"type":"Feature","id":"u_fc_poi_water.497","geometry":{"type":"Point","coordinates":[3.6702628,6.665436]},"geometry_name":"geom","properties":{"state_code":"LA","source":"GRID","name":"Ogun Osun River Basin Development Borehole1","ward_code":"LASIKU14","alt_name":null,"type":"Borehole","global_id":"042cc39f-61f3-4687-a171-3fad213cc4d4"}},{"type":"Feature","id":"u_fc_poi_water.505","geometry":{"type":"Point","coordinates":[3.3524017,6.454765]},"geometry_name":"geom","properties":{"state_code":"LA","source":"GRID","name":"Alayabiagba Borehole","ward_code":"LASAPA10","alt_name":null,"type":"Borehole","global_id":"0436fc77-40bc-4471-9af4-2ecfb4d155db"}},{"type":"Feature","id":"u_fc_poi_water.584","geometry":{"type":"Point","coordinates":[3.2780998,6.4717922]},"geometry_name":"geom","properties":{"state_code":"LA","source":"GRID","name":"5th Ave W Close Tap Water","ward_code":"LASAON14","alt_name":null,"type":"Waterworks","global_id":"04ec8b27-9b82-40e4-9761-58a6d4900eb0"}},{"type":"Feature","id":"u_fc_poi_water.587","geometry":{"type":"Point","coordinates":[3.3702303,6.5395011]},"geometry_name":"geom","properties":{"state_code":"LA","source":"GRID","name":"Eyo Tap Water","ward_code":"LASSMU09","alt_name":null,"type":"Waterworks","global_id":"04f2391f-f5d6-4e9d-9c3a-3c43c912fdb2"}},{"type":"Feature","id":"u_fc_poi_water.589","geometry":{"type":"Point","coordinates":[3.6180619,6.6048793]},"geometry_name":"geom","properties":{"state_code":"LA","source":"GRID","name":"Lagos State Ministry Of Rural Development Water Scheme Public Borehole Water","ward_code":"LASIKU04","alt_name":null,"type":"Borehole","global_id":"04f6ed82-2bcb-42a4-8ba1-c4db564507e1"}},{"type":"Feature","id":"u_fc_poi_water.726","geometry":{"type":"Point","coordinates":[3.3369089,6.5702534]},"geometry_name":"geom","properties":{"state_code":"LA","source":"GRID","name":"Ogundele Public Borehole Water Point","ward_code":"LASOIO08","alt_name":null,"type":"Borehole","global_id":"06505b6a-7ced-4620-8fdb-7ecb29e6986a"}},{"type":"Feature","id":"u_fc_poi_water.737","geometry":{"type":"Point","coordinates":[3.7944998,6.440149]},"geometry_name":"geom","properties":{"state_code":"LA","source":"GRID","name":"Itun Agbon Borehole","ward_code":"LASIUI10","alt_name":null,"type":"Borehole","global_id":"066c6c9e-7e32-4ace-9307-7c54bdd93218"}},{"type":"Feature","id":"u_fc_poi_water.745","geometry":{"type":"Point","coordinates":[3.2731541,6.6289748]},"geometry_name":"geom","properties":{"state_code":"LA","source":"GRID","name":"Plot 25 Pius Eze Street Tap Water","ward_code":"LASAMO04","alt_name":null,"type":"Waterworks","global_id":"067dfb77-6ccb-46ff-9e9e-10716e69ac94"}},{"type":"Feature","id":"u_fc_poi_water.760","geometry":{"type":"Point","coordinates":[3.01527,6.4862333]},"geometry_name":"geom","properties":{"state_code":"LA","source":"GRID","name":"Public Well","ward_code":"LASBDY13","alt_name":null,"type":"Well","global_id":"069f531d-3805-4b15-a7df-510c43aafc4e"}},{"type":"Feature","id":"u_fc_poi_water.804","geometry":{"type":"Point","coordinates":[3.5222235,6.6625609]},"geometry_name":"geom","properties":{"state_code":"LA","source":"GRID","name":"Livingstone Tap Water","ward_code":"LASIKU03","alt_name":null,"type":"Waterworks","global_id":"06ff221b-7806-4bb6-b00c-6b13030232b3"}},{"type":"Feature","id":"u_fc_poi_water.808","geometry":{"type":"Point","coordinates":[3.5797963,6.6149569]},"geometry_name":"geom","properties":{"state_code":"LA","source":"GRID","name":"Fakun Borehole","ward_code":"LASIKU04","alt_name":null,"type":"Borehole","global_id":"0704ca69-3559-4e56-b5e9-0d888c3c06d0"}},{"type":"Feature","id":"u_fc_poi_water.816","geometry":{"type":"Point","coordinates":[3.54618,6.5690033]},"geometry_name":"geom","properties":{"state_code":"LA","source":"GRID","name":"Redeemed Christian Church Of God Borehole","ward_code":"LASIKU01","alt_name":null,"type":"Borehole","global_id":"071d5d3a-a574-4f18-bb12-bc6699671676"}},{"type":"Feature","id":"u_fc_poi_water.818","geometry":{"type":"Point","coordinates":[3.1529574,6.4648125]},"geometry_name":"geom","properties":{"state_code":"LA","source":"GRID","name":"117 llogbo Road Borehole Water","ward_code":"LASOJO07","alt_name":null,"type":"Borehole","global_id":"072049da-77cb-4974-90a9-81cd08428006"}},{"type":"Feature","id":"u_fc_poi_water.828","geometry":{"type":"Point","coordinates":[3.2983833,6.6752183]},"geometry_name":"geom","properties":{"state_code":"LA","source":"GRID","name":"Ifelodun Borehole Water","ward_code":"LASIOE07","alt_name":null,"type":"Borehole","global_id":"072ca1c4-2ae0-4c87-b347-ebecfc43aa02"}},{"type":"Feature","id":"u_fc_poi_water.838","geometry":{"type":"Point","coordinates":[3.3335744,6.5570426]},"geometry_name":"geom","properties":{"state_code":"LA","source":"GRID","name":"Olaiya Link Borehole","ward_code":"LASOIO15","alt_name":null,"type":"Borehole","global_id":"073b9f9c-a029-47db-bb09-6912d5a3736f"}},{"type":"Feature","id":"u_fc_poi_water.910","geometry":{"type":"Point","coordinates":[3.3482167,6.4699067]},"geometry_name":"geom","properties":{"state_code":"LA","source":"GRID","name":"Adeoye Street Tap Water","ward_code":"LASATO12","alt_name":null,"type":"Waterworks","global_id":"07e37155-5851-4afe-baaf-7c85d2a2f385"}},{"type":"Feature","id":"u_fc_poi_water.926","geometry":{"type":"Point","coordinates":[3.1203796,6.4600309]},"geometry_name":"geom","properties":{"state_code":"LA","source":"GRID","name":"Itakete Imude Borehole","ward_code":"LASOJO03","alt_name":null,"type":"Borehole","global_id":"0806a937-2a00-4fbe-be6d-ed84ec9baaf3"}},{"type":"Feature","id":"u_fc_poi_water.975","geometry":{"type":"Point","coordinates":[3.1571529,6.4911026]},"geometry_name":"geom","properties":{"state_code":"LA","source":"GRID","name":"Borehole Water Ketu","ward_code":"LASOJO01","alt_name":null,"type":"Borehole","global_id":"086ee733-d9f7-4c77-a887-eabf055bdb0f"}},{"type":"Feature","id":"u_fc_poi_water.993","geometry":{"type":"Point","coordinates":[3.1517899,6.4579064]},"geometry_name":"geom","properties":{"state_code":"LA","source":"GRID","name":"6 Prince Jones Borehole","ward_code":"LASOJO03","alt_name":null,"type":"Borehole","global_id":"08a1d270-4243-4598-acf2-22f1ca36bbd3"}},{"type":"Feature","id":"u_fc_poi_water.1065","geometry":{"type":"Point","coordinates":[3.822306,6.4804428]},"geometry_name":"geom","properties":{"state_code":"LA","source":"GRID","name":"Public Well","ward_code":"LASIUI02","alt_name":null,"type":"Well","global_id":"095125aa-164f-4e0b-a258-4b208d3eff52"}},{"type":"Feature","id":"u_fc_poi_water.1106","geometry":{"type":"Point","coordinates":[3.3159384,6.5063555]},"geometry_name":"geom","properties":{"state_code":"LA","source":"GRID","name":"Sowande Street Borehole","ward_code":"LASOIO18","alt_name":null,"type":"Borehole","global_id":"09b819e5-741d-4af4-abcb-850764c503bb"}},{"type":"Feature","id":"u_fc_poi_water.1108","geometry":{"type":"Point","coordinates":[3.9868893,6.6528323]},"geometry_name":"geom","properties":{"state_code":"LA","source":"GRID","name":"St Michael Agbolade Otedola Tap Water","ward_code":"LASEPE15","alt_name":null,"type":"Waterworks","global_id":"09bf02a3-3100-4cab-b2b2-5ccad044a1bb"}},{"type":"Feature","id":"u_fc_poi_water.1157","geometry":{"type":"Point","coordinates":[3.5224667,6.6740683]},"geometry_name":"geom","properties":{"state_code":"LA","source":"GRID","name":"Ministry Of Rural Development Borehole","ward_code":"LASIKU23","alt_name":null,"type":"Borehole","global_id":"0a2b0ed2-1a01-4824-a1d6-a37f7cf7339d"}},{"type":"Feature","id":"u_fc_poi_water.1162","geometry":{"type":"Point","coordinates":[3.5170941,6.5915802]},"geometry_name":"geom","properties":{"state_code":"LA","source":"GRID","name":"Adeboruwa Palace Public Borehole Water","ward_code":"LASIKU01","alt_name":null,"type":"Borehole","global_id":"0a34f9b9-689b-4f0c-916d-f47c1caf561b"}},{"type":"Feature","id":"u_fc_poi_water.1163","geometry":{"type":"Point","coordinates":[3.6751847,6.6624245]},"geometry_name":"geom","properties":{"state_code":"LA","source":"GRID","name":"Igi Aruwe Borehole Water","ward_code":"LASIKU14","alt_name":null,"type":"Borehole","global_id":"0a35d92c-62b9-444e-98cf-87414cf160ae"}},{"type":"Feature","id":"u_fc_poi_water.1176","geometry":{"type":"Point","coordinates":[3.1440246,6.4171178]},"geometry_name":"geom","properties":{"state_code":"LA","source":"GRID","name":"Borehole Water Osulu Junior And Senior Grammar School","ward_code":"LASOJO09","alt_name":null,"type":"Borehole","global_id":"0a60a987-f2a1-4e94-806b-3a9b5c0479c4"}},{"type":"Feature","id":"u_fc_poi_water.1179","geometry":{"type":"Point","coordinates":[3.7959067,6.4807517]},"geometry_name":"geom","properties":{"state_code":"LA","source":"GRID","name":"Celestial Way Well","ward_code":"LASIUI02","alt_name":null,"type":"Well","global_id":"0a658b7c-8d8d-4a7c-9d74-cff565ff6bcc"}},{"type":"Feature","id":"u_fc_poi_water.1202","geometry":{"type":"Point","coordinates":[3.5049033,6.6141213]},"geometry_name":"geom","properties":{"state_code":"LA","source":"GRID","name":"Ladega Road Tap Water","ward_code":"LASIKU17","alt_name":null,"type":"Waterworks","global_id":"0a9b9342-044e-4935-82f7-08664d08f094"}},{"type":"Feature","id":"u_fc_poi_water.1236","geometry":{"type":"Point","coordinates":[4.216891,6.391006]},"geometry_name":"geom","properties":{"state_code":"LA","source":"GRID","name":"Public Borehole Akodo","ward_code":"LASIUI03","alt_name":null,"type":"Borehole","global_id":"0af667eb-b89e-458b-b58b-ef908e633ee9"}},{"type":"Feature","id":"u_fc_poi_water.1313","geometry":{"type":"Point","coordinates":[3.1353002,6.4507417]},"geometry_name":"geom","properties":{"state_code":"LA","source":"GRID","name":"Mob Mohammed Tap Water Point","ward_code":"LASOJO03","alt_name":null,"type":"Waterworks","global_id":"0ba782e6-6ce8-476c-a199-bc99e424d52e"}},{"type":"Feature","id":"u_fc_poi_water.1363","geometry":{"type":"Point","coordinates":[3.3588073,6.4723102]},"geometry_name":"geom","properties":{"state_code":"LA","source":"GRID","name":"Borehole Lmdgp","ward_code":"LASAPA11","alt_name":null,"type":"Waterworks","global_id":"0c112cb7-7657-4392-9ff4-874186f6b6b8"}},{"type":"Feature","id":"u_fc_poi_water.1375","geometry":{"type":"Point","coordinates":[4.1786983,6.6034033]},"geometry_name":"geom","properties":{"state_code":"LA","source":"GRID","name":"Luwako Well Water","ward_code":"LASEPE16","alt_name":null,"type":"Borehole","global_id":"0c316426-499e-41bc-94b6-0a7b612890bd"}},{"type":"Feature","id":"u_fc_poi_water.1379","geometry":{"type":"Point","coordinates":[3.3651017,6.4663283]},"geometry_name":"geom","properties":{"state_code":"LA","source":"GRID","name":"Mojisola Meranda Odofin Street Public Borehole Water","ward_code":"LASAPA08","alt_name":null,"type":"Borehole","global_id":"0c38ebdd-a118-4cbd-9ede-1ca2aab352bc"}},{"type":"Feature","id":"u_fc_poi_water.1395","geometry":{"type":"Point","coordinates":[3.2502533,6.5849167]},"geometry_name":"geom","properties":{"state_code":"LA","source":"GRID","name":"Candos Road Tap Water","ward_code":"LASAMO16","alt_name":null,"type":"Borehole","global_id":"0c55bb0a-e91f-469e-af84-ca8aea2e8157"}},{"type":"Feature","id":"u_fc_poi_water.1505","geometry":{"type":"Point","coordinates":[3.5819217,6.6280133]},"geometry_name":"geom","properties":{"state_code":"LA","source":"GRID","name":"Saala Junction Borehole Mowo Kekere","ward_code":"LASIKU04","alt_name":null,"type":"Borehole","global_id":"0d31206e-e06b-4a94-98e6-a04bc0260ba9"}},{"type":"Feature","id":"u_fc_poi_water.1535","geometry":{"type":"Point","coordinates":[2.9599152,6.4942166]},"geometry_name":"geom","properties":{"state_code":"LA","source":"GRID","name":"Musa Meritland Street Well","ward_code":"LASBDY13","alt_name":null,"type":"Well","global_id":"0d73138a-8cc3-49bb-9dbf-b3de25187726"}},{"type":"Feature","id":"u_fc_poi_water.1613","geometry":{"type":"Point","coordinates":[3.3336036,6.4489171]},"geometry_name":"geom","properties":{"state_code":"LA","source":"GRID","name":"Public Well Water Point","ward_code":"LASATO13","alt_name":null,"type":"Well","global_id":"0e1af3c7-406d-4abf-9c48-580f3524278a"}},{"type":"Feature","id":"u_fc_poi_water.1689","geometry":{"type":"Point","coordinates":[3.2614663,6.5452987]},"geometry_name":"geom","properties":{"state_code":"LA","source":"GRID","name":"Public Borehole","ward_code":"LASAMO01","alt_name":null,"type":"Borehole","global_id":"0ee217ea-f36b-46a9-a033-01972a20843e"}},{"type":"Feature","id":"u_fc_poi_water.1699","geometry":{"type":"Point","coordinates":[3.9626238,6.4342465]},"geometry_name":"geom","properties":{"state_code":"LA","source":"GRID","name":"Bale Jegede Street Tap Water Mobido Eti Okun","ward_code":"LASIUI07","alt_name":null,"type":"Waterworks","global_id":"0ef1c60a-8ee6-485d-a006-b15e3b22f3e3"}},{"type":"Feature","id":"u_fc_poi_water.1706","geometry":{"type":"Point","coordinates":[3.2330333,6.4537683]},"geometry_name":"geom","properties":{"state_code":"LA","source":"GRID","name":"33 Godwin Nneke Street Borehole Abule Osun","ward_code":"LASAON01","alt_name":null,"type":"Borehole","global_id":"0efed415-011c-4c5b-a08e-61aa28714fcb"}},{"type":"Feature","id":"u_fc_poi_water.1768","geometry":{"type":"Point","coordinates":[3.2921115,6.4727194]},"geometry_name":"geom","properties":{"state_code":"LA","source":"GRID","name":"12 Road Wateramuwo Odofin Tap Water","ward_code":"LASAON07","alt_name":null,"type":"Waterworks","global_id":"0f9dea3f-c5ae-47fe-928d-34adcca7b7fd"}},{"type":"Feature","id":"u_fc_poi_water.1772","geometry":{"type":"Point","coordinates":[3.2971333,6.6813333]},"geometry_name":"geom","properties":{"state_code":"LA","source":"GRID","name":"Ikereku Borehole Water","ward_code":"LASIOE07","alt_name":null,"type":"Borehole","global_id":"0fa437f7-a631-4248-a39b-a40d0171a6b7"}},{"type":"Feature","id":"u_fc_poi_water.1828","geometry":{"type":"Point","coordinates":[3.4962542,6.683098]},"geometry_name":"geom","properties":{"state_code":"LA","source":"GRID","name":"Precious Gift and Precious Jewel School Borehole","ward_code":"LASIKU23","alt_name":null,"type":"Borehole","global_id":"10359712-9980-460e-acff-4bb728e9a7a7"}},{"type":"Feature","id":"u_fc_poi_water.1862","geometry":{"type":"Point","coordinates":[3.39067,6.537615]},"geometry_name":"geom","properties":{"state_code":"LA","source":"GRID","name":"Emanuel Well","ward_code":"LASSMU03","alt_name":null,"type":"Well","global_id":"1083c26e-dd82-445d-ac9f-dfb0ebae0484"}},{"type":"Feature","id":"u_fc_poi_water.1864","geometry":{"type":"Point","coordinates":[3.2813788,6.59256]},"geometry_name":"geom","properties":{"state_code":"LA","source":"GRID","name":"Makanye Street Borehole","ward_code":"LASAMO33","alt_name":null,"type":"Borehole","global_id":"1085b7ce-106d-455e-ba32-cb51f699c510"}},{"type":"Feature","id":"u_fc_poi_water.1887","geometry":{"type":"Point","coordinates":[3.6706875,6.657815]},"geometry_name":"geom","properties":{"state_code":"LA","source":"GRID","name":"Senate Hotel Borehole Semaye","ward_code":"LASIKU14","alt_name":null,"type":"Borehole","global_id":"10c0c065-0a2c-4e13-9ddd-766fecff368f"}},{"type":"Feature","id":"u_fc_poi_water.1899","geometry":{"type":"Point","coordinates":[3.3814132,6.406769]},"geometry_name":"geom","properties":{"state_code":"LA","source":"GRID","name":"Epiphany School Water Well","ward_code":"LASEOA19","alt_name":null,"type":"Well","global_id":"10db9edf-cb35-466d-a948-9c52abaa02a7"}},{"type":"Feature","id":"u_fc_poi_water.1932","geometry":{"type":"Point","coordinates":[3.2633103,6.5970053]},"geometry_name":"geom","properties":{"state_code":"LA","source":"GRID","name":"Candos Borehole Water","ward_code":"LASAMO16","alt_name":null,"type":"Borehole","global_id":"1135abc0-2dd5-435f-86f4-5b3106855ec0"}},{"type":"Feature","id":"u_fc_poi_water.1963","geometry":{"type":"Point","coordinates":[3.3632542,6.5699858]},"geometry_name":"geom","properties":{"state_code":"LA","source":"GRID","name":"Lion Kunle Awolaja Tap Water","ward_code":"LASIKA12","alt_name":null,"type":"Waterworks","global_id":"1191d459-177d-400f-8463-7cabe54c811b"}},{"type":"Feature","id":"u_fc_poi_water.2019","geometry":{"type":"Point","coordinates":[2.9904417,6.473755]},"geometry_name":"geom","properties":{"state_code":"LA","source":"GRID","name":"Well Water","ward_code":"LASBDY13","alt_name":null,"type":"Well","global_id":"120b1307-e9cb-4bbe-a576-c3adeb16a3d5"}},{"type":"Feature","id":"u_fc_poi_water.2025","geometry":{"type":"Point","coordinates":[3.1024535,6.4602133]},"geometry_name":"geom","properties":{"state_code":"LA","source":"GRID","name":"Ijadola Borehole Orisha","ward_code":"LASOJO03","alt_name":null,"type":"Borehole","global_id":"1218f34e-4a43-4ed3-b356-fd391141e14a"}},{"type":"Feature","id":"u_fc_poi_water.2045","geometry":{"type":"Point","coordinates":[3.1434621,6.4591807]},"geometry_name":"geom","properties":{"state_code":"LA","source":"GRID","name":"6 Alhaji Ona Olapo Street Borehole Santana Bishiri Ojo Lagos","ward_code":"LASOJO03","alt_name":null,"type":"Borehole","global_id":"12446307-4e10-4d9f-ba01-5b39f2342076"}},{"type":"Feature","id":"u_fc_poi_water.2063","geometry":{"type":"Point","coordinates":[3.4933417,6.6666245]},"geometry_name":"geom","properties":{"state_code":"LA","source":"GRID","name":"Lagos State Water Scheme Ministry Of Rural Development Borehole Agbede","ward_code":"LASIKU06","alt_name":null,"type":"Borehole","global_id":"126b09ea-9fd5-40d8-b44d-4a1179b9ddfc"}},{"type":"Feature","id":"u_fc_poi_water.2076","geometry":{"type":"Point","coordinates":[3.1669367,6.48109]},"geometry_name":"geom","properties":{"state_code":"LA","source":"GRID","name":"Utuh Street Tap Water","ward_code":"LASOJO01","alt_name":null,"type":"Borehole","global_id":"128b8914-6fce-47ce-9321-2155c18e1391"}},{"type":"Feature","id":"u_fc_poi_water.2130","geometry":{"type":"Point","coordinates":[3.8498767,6.4407017]},"geometry_name":"geom","properties":{"state_code":"LA","source":"GRID","name":"Oke Owode Well","ward_code":"LASIUI10","alt_name":null,"type":"Well","global_id":"130ab795-6c71-49e8-b4bc-d3ec1ec8c0b2"}},{"type":"Feature","id":"u_fc_poi_water.2137","geometry":{"type":"Point","coordinates":[3.2914255,6.6447805]},"geometry_name":"geom","properties":{"state_code":"LA","source":"GRID","name":"Public Borehole Water","ward_code":"LASAMO05","alt_name":null,"type":"Borehole","global_id":"1326332b-e89f-4077-813d-81e34464beb1"}},{"type":"Feature","id":"u_fc_poi_water.2143","geometry":{"type":"Point","coordinates":[3.1068942,6.4610722]},"geometry_name":"geom","properties":{"state_code":"LA","source":"GRID","name":"Orisha Borehole","ward_code":"LASOJO03","alt_name":null,"type":"Borehole","global_id":"133a6825-7412-4198-9626-55c07901427d"}},{"type":"Feature","id":"u_fc_poi_water.2163","geometry":{"type":"Point","coordinates":[3.484538,6.6648096]},"geometry_name":"geom","properties":{"state_code":"LA","source":"GRID","name":"Agbede Rd Borehole","ward_code":"LASIKU06","alt_name":null,"type":"Borehole","global_id":"135fbebf-dca2-4cab-8b2a-d94bd9d13c7d"}},{"type":"Feature","id":"u_fc_poi_water.2231","geometry":{"type":"Point","coordinates":[3.3286717,6.4608188]},"geometry_name":"geom","properties":{"state_code":"LA","source":"GRID","name":"Charles Wells","ward_code":"LASATO14","alt_name":null,"type":"Well","global_id":"13fd6d58-69f8-485a-919d-bafc4824bf61"}},{"type":"Feature","id":"u_fc_poi_water.2262","geometry":{"type":"Point","coordinates":[3.281683,6.5437686]},"geometry_name":"geom","properties":{"state_code":"LA","source":"GRID","name":"Borehole","ward_code":"LASAMO20","alt_name":null,"type":"Borehole","global_id":"143a3bcc-4a05-4843-acab-3db3f3cfe588"}},{"type":"Feature","id":"u_fc_poi_water.2287","geometry":{"type":"Point","coordinates":[2.9802767,6.4334783]},"geometry_name":"geom","properties":{"state_code":"LA","source":"GRID","name":"Imekeiworo Mini Borehole Water","ward_code":"LASBDY04","alt_name":null,"type":"Borehole","global_id":"147bfe19-98c3-436b-a354-530eae422c43"}},{"type":"Feature","id":"u_fc_poi_water.2355","geometry":{"type":"Point","coordinates":[3.5206117,6.663385]},"geometry_name":"geom","properties":{"state_code":"LA","source":"GRID","name":"Chief Adeyiga Awolola Tap Water","ward_code":"LASIKU23","alt_name":null,"type":"Waterworks","global_id":"1526b7dc-9029-433b-b947-13a4d1e8270b"}},{"type":"Feature","id":"u_fc_poi_water.2425","geometry":{"type":"Point","coordinates":[3.6747672,6.661149]},"geometry_name":"geom","properties":{"state_code":"LA","source":"GRID","name":"Imota Borehole","ward_code":"LASIKU14","alt_name":null,"type":"Borehole","global_id":"15cd2bb5-2f31-4a2e-bf6c-a0955445d99f"}},{"type":"Feature","id":"u_fc_poi_water.2435","geometry":{"type":"Point","coordinates":[3.3697147,6.5225497]},"geometry_name":"geom","properties":{"state_code":"LA","source":"GRID","name":"Clara Street Borehole","ward_code":"LASLMD10","alt_name":null,"type":"Borehole","global_id":"15e35acc-b93d-4052-8df0-7475c94c3524"}},{"type":"Feature","id":"u_fc_poi_water.2442","geometry":{"type":"Point","coordinates":[3.5089157,6.6318533]},"geometry_name":"geom","properties":{"state_code":"LA","source":"GRID","name":"Agbala Borehole","ward_code":"LASIKU26","alt_name":null,"type":"Borehole","global_id":"15eb9373-f56d-4e63-a284-0285a00b861c"}},{"type":"Feature","id":"u_fc_poi_water.2444","geometry":{"type":"Point","coordinates":[4.0225583,6.4243433]},"geometry_name":"geom","properties":{"state_code":"LA","source":"GRID","name":"Idotun Community Borehole","ward_code":"LASIUI06","alt_name":null,"type":"Borehole","global_id":"15ec1ded-687e-43da-8a96-929b3b6a45cf"}},{"type":"Feature","id":"u_fc_poi_water.2530","geometry":{"type":"Point","coordinates":[3.6218342,6.660083]},"geometry_name":"geom","properties":{"state_code":"LA","source":"GRID","name":"Iya Asuji Borehole","ward_code":"LASIKU07","alt_name":null,"type":"Waterworks","global_id":"16a2f30f-5ab1-4851-84df-adf2eb97c9cd"}},{"type":"Feature","id":"u_fc_poi_water.2556","geometry":{"type":"Point","coordinates":[3.2327313,6.4542811]},"geometry_name":"geom","properties":{"state_code":"LA","source":"GRID","name":"Godwin Nneke Street Borehole Water Abule Osun","ward_code":"LASAON01","alt_name":null,"type":"Borehole","global_id":"16e89fb2-f8a7-45ae-bbc0-a202c6b801ca"}},{"type":"Feature","id":"u_fc_poi_water.2625","geometry":{"type":"Point","coordinates":[4.0529728,6.6364976]},"geometry_name":"geom","properties":{"state_code":"LA","source":"GRID","name":"Government Borehole","ward_code":"LASEPE10","alt_name":null,"type":"Borehole","global_id":"177221f6-4165-4fcd-b1d2-c0796cb3205b"}},{"type":"Feature","id":"u_fc_poi_water.2643","geometry":{"type":"Point","coordinates":[3.2622037,6.6572792]},"geometry_name":"geom","properties":{"state_code":"LA","source":"GRID","name":"Public Tap Suberu Oje","ward_code":"LASAMO06","alt_name":null,"type":"Borehole","global_id":"17afc211-598c-4ebf-a42e-251980b62bb0"}},{"type":"Feature","id":"u_fc_poi_water.2662","geometry":{"type":"Point","coordinates":[3.0987694,6.4616741]},"geometry_name":"geom","properties":{"state_code":"LA","source":"GRID","name":"Oko Okeorisha Borehole","ward_code":"LASOJO03","alt_name":null,"type":"Borehole","global_id":"17e6478c-7b9a-4cd8-a905-e343d288f0a2"}},{"type":"Feature","id":"u_fc_poi_water.2715","geometry":{"type":"Point","coordinates":[4.0640933,6.4167481]},"geometry_name":"geom","properties":{"state_code":"LA","source":"GRID","name":"Arielu Street Well","ward_code":"LASIUI06","alt_name":null,"type":"Well","global_id":"184aa1f8-307c-47d6-9de2-c4cc5f94674e"}},{"type":"Feature","id":"u_fc_poi_water.2752","geometry":{"type":"Point","coordinates":[3.2456776,6.5544344]},"geometry_name":"geom","properties":{"state_code":"LA","source":"GRID","name":"Arowojobe Street Borehole","ward_code":"LASAMO23","alt_name":null,"type":"Borehole","global_id":"189f8cd9-b5a3-4a2b-915e-4af20f47a52c"}},{"type":"Feature","id":"u_fc_poi_water.2812","geometry":{"type":"Point","coordinates":[3.229225,6.4802267]},"geometry_name":"geom","properties":{"state_code":"LA","source":"GRID","name":"Cantonment Borehole Water 1","ward_code":"LASOJO08","alt_name":null,"type":"Borehole","global_id":"1922f59f-0ac7-4963-8e99-618ec62494ad"}},{"type":"Feature","id":"u_fc_poi_water.2849","geometry":{"type":"Point","coordinates":[3.3937983,6.5493683]},"geometry_name":"geom","properties":{"state_code":"LA","source":"GRID","name":"Shogamu Tap Water","ward_code":"LASSMU03","alt_name":null,"type":"Waterworks","global_id":"196fc10e-8b33-4fc9-b283-3675b2fcc459"}},{"type":"Feature","id":"u_fc_poi_water.2862","geometry":{"type":"Point","coordinates":[2.9292685,6.4122058]},"geometry_name":"geom","properties":{"state_code":"LA","source":"GRID","name":"New Era Borehole","ward_code":"LASBDY12","alt_name":null,"type":"Borehole","global_id":"198cfbd0-33be-4a29-bbd2-8a2d69854d77"}},{"type":"Feature","id":"u_fc_poi_water.2867","geometry":{"type":"Point","coordinates":[3.9909302,6.4330966]},"geometry_name":"geom","properties":{"state_code":"LA","source":"GRID","name":"Dangote Water Taps Lekuru","ward_code":"LASIUI07","alt_name":null,"type":"Waterworks","global_id":"199a3404-99c5-4394-8b2b-380d8131585b"}},{"type":"Feature","id":"u_fc_poi_water.2871","geometry":{"type":"Point","coordinates":[3.2827656,6.6445852]},"geometry_name":"geom","properties":{"state_code":"LA","source":"GRID","name":"Borehole Aladura Oloruda Street","ward_code":"LASAMO06","alt_name":null,"type":"Borehole","global_id":"19a0d4d1-b765-4058-a77f-c825b81a938b"}},{"type":"Feature","id":"u_fc_poi_water.2881","geometry":{"type":"Point","coordinates":[3.2782976,6.564167]},"geometry_name":"geom","properties":{"state_code":"LA","source":"GRID","name":"Fatai Feyemi Tap Water","ward_code":"LASAMO22","alt_name":null,"type":"Waterworks","global_id":"19ba324b-8ef4-4f8a-8790-6a6313915172"}},{"type":"Feature","id":"u_fc_poi_water.2960","geometry":{"type":"Point","coordinates":[3.296945,6.59208]},"geometry_name":"geom","properties":{"state_code":"LA","source":"GRID","name":"Odulana Street Tap Water","ward_code":"LASAMO30","alt_name":null,"type":"Waterworks","global_id":"1a6ac570-6925-4682-bbca-45d59fa5801c"}},{"type":"Feature","id":"u_fc_poi_water.2974","geometry":{"type":"Point","coordinates":[3.3938312,6.5593979]},"geometry_name":"geom","properties":{"state_code":"LA","source":"GRID","name":"Jesus Street Well Water","ward_code":"LASKSE06","alt_name":null,"type":"Well","global_id":"1a8d37c4-57b0-49e3-b1b2-cd95a0573b17"}},{"type":"Feature","id":"u_fc_poi_water.3024","geometry":{"type":"Point","coordinates":[3.2970036,6.4989328]},"geometry_name":"geom","properties":{"state_code":"LA","source":"GRID","name":"Olive Street Borehole","ward_code":"LASOIO07","alt_name":null,"type":"Borehole","global_id":"1b077dad-b739-474c-a93e-d8b2870cd0b1"}},{"type":"Feature","id":"u_fc_poi_water.3065","geometry":{"type":"Point","coordinates":[3.9796777,6.6745188]},"geometry_name":"geom","properties":{"state_code":"LA","source":"GRID","name":"Itedo Oluwa Borehole","ward_code":"LASEPE15","alt_name":null,"type":"Borehole","global_id":"1b5cfb50-801a-4fc5-8aa8-f8b60a511a30"}},{"type":"Feature","id":"u_fc_poi_water.3080","geometry":{"type":"Point","coordinates":[3.3535517,6.4685633]},"geometry_name":"geom","properties":{"state_code":"LA","source":"GRID","name":"Ogun Osun River Basin Development Borehole Oja Badia","ward_code":"LASAPA07","alt_name":null,"type":"Borehole","global_id":"1b7428bb-9c76-4d3c-9df7-3c03dd5442e9"}},{"type":"Feature","id":"u_fc_poi_water.3090","geometry":{"type":"Point","coordinates":[3.2435617,6.5695567]},"geometry_name":"geom","properties":{"state_code":"LA","source":"GRID","name":"Toluwani Borehole","ward_code":"LASAMO25","alt_name":null,"type":"Borehole","global_id":"1b88f93f-08b5-4b4d-a48c-6eaac4776505"}},{"type":"Feature","id":"u_fc_poi_water.3099","geometry":{"type":"Point","coordinates":[3.256263,6.6759592]},"geometry_name":"geom","properties":{"state_code":"LA","source":"GRID","name":"2 Awaye Borehole","ward_code":"LASAMO11","alt_name":null,"type":"Borehole","global_id":"1b9c75a2-1c10-4a41-8c34-d1cdf83790bf"}},{"type":"Feature","id":"u_fc_poi_water.3122","geometry":{"type":"Point","coordinates":[3.332883,6.5597438]},"geometry_name":"geom","properties":{"state_code":"LA","source":"GRID","name":"Saubana Street Borehole","ward_code":"LASOIO19","alt_name":null,"type":"Borehole","global_id":"1bc059c9-0130-4f3e-a48d-50bd94779881"}},{"type":"Feature","id":"u_fc_poi_water.3127","geometry":{"type":"Point","coordinates":[4.0528472,6.4206366]},"geometry_name":"geom","properties":{"state_code":"LA","source":"GRID","name":"Otunba Tap Water","ward_code":"LASIUI06","alt_name":null,"type":"Waterworks","global_id":"1bc8ccb8-4c99-4958-ad52-450e93a8db8f"}},{"type":"Feature","id":"u_fc_poi_water.3139","geometry":{"type":"Point","coordinates":[3.1415958,6.4920382]},"geometry_name":"geom","properties":{"state_code":"LA","source":"GRID","name":"Ajose Street Borehole","ward_code":"LASOJO13","alt_name":null,"type":"Borehole","global_id":"1bdc7e11-1fb9-449b-b288-e05297d4b172"}},{"type":"Feature","id":"u_fc_poi_water.3142","geometry":{"type":"Point","coordinates":[3.2213433,6.5758]},"geometry_name":"geom","properties":{"state_code":"LA","source":"GRID","name":"Je Alubosa Junction Tap Water","ward_code":"LASAMO15","alt_name":null,"type":"Waterworks","global_id":"1be0f0e2-8a78-45b0-a980-75d9780fee76"}},{"type":"Feature","id":"u_fc_poi_water.3153","geometry":{"type":"Point","coordinates":[3.4002389,6.5999347]},"geometry_name":"geom","properties":{"state_code":"LA","source":"GRID","name":"Onasanya Tap Water","ward_code":"LASKSE03","alt_name":null,"type":"Waterworks","global_id":"1c119c14-9189-4ed6-969f-40146f4a7f16"}},{"type":"Feature","id":"u_fc_poi_water.3186","geometry":{"type":"Point","coordinates":[3.2798901,6.6245687]},"geometry_name":"geom","properties":{"state_code":"LA","source":"GRID","name":"2 James Ademola Street Borehole","ward_code":"LASAMO04","alt_name":null,"type":"Borehole","global_id":"1c5164fe-6b28-4704-b9fa-5b292ab61caa"}},{"type":"Feature","id":"u_fc_poi_water.3195","geometry":{"type":"Point","coordinates":[3.2275045,6.469492]},"geometry_name":"geom","properties":{"state_code":"LA","source":"GRID","name":"Army Barack Borehole","ward_code":"LASOJO08","alt_name":null,"type":"Borehole","global_id":"1c6d4a44-6522-4255-9457-b482b8f5d040"}},{"type":"Feature","id":"u_fc_poi_water.3217","geometry":{"type":"Point","coordinates":[3.1908954,6.5132267]},"geometry_name":"geom","properties":{"state_code":"LA","source":"GRID","name":"Idowu Street Public Borehole Water","ward_code":"LASOJO04","alt_name":null,"type":"Borehole","global_id":"1cba84d7-54e8-4889-aa70-d161259b9bce"}},{"type":"Feature","id":"u_fc_poi_water.3230","geometry":{"type":"Point","coordinates":[3.2039733,6.41984]},"geometry_name":"geom","properties":{"state_code":"LA","source":"GRID","name":"Ripple Height Borehole","ward_code":"LASAON05","alt_name":null,"type":"Borehole","global_id":"1cd2620e-5265-4102-9fcd-205d039df351"}},{"type":"Feature","id":"u_fc_poi_water.3281","geometry":{"type":"Point","coordinates":[3.4951833,6.6762283]},"geometry_name":"geom","properties":{"state_code":"LA","source":"GRID","name":"Borehole","ward_code":"LASIKU23","alt_name":null,"type":"Borehole","global_id":"1d485a08-13dd-44af-b98c-455b1bcb390c"}},{"type":"Feature","id":"u_fc_poi_water.3291","geometry":{"type":"Point","coordinates":[3.3117008,6.4415624]},"geometry_name":"geom","properties":{"state_code":"LA","source":"GRID","name":"Akin Bello Borehole","ward_code":"LASAON11","alt_name":null,"type":"Borehole","global_id":"1d655eba-a8ad-4068-a716-3736c9c8d9b2"}},{"type":"Feature","id":"u_fc_poi_water.3342","geometry":{"type":"Point","coordinates":[3.3358836,6.5662153]},"geometry_name":"geom","properties":{"state_code":"LA","source":"GRID","name":"Ayeni Street Borehole","ward_code":"LASOIO08","alt_name":null,"type":"Borehole","global_id":"1dd99a45-40c6-4a7f-89b4-9f23921d27b5"}},{"type":"Feature","id":"u_fc_poi_water.3348","geometry":{"type":"Point","coordinates":[3.5270624,6.6593338]},"geometry_name":"geom","properties":{"state_code":"LA","source":"GRID","name":"Odogunyan Tap Water 1","ward_code":"LASIKU03","alt_name":null,"type":"Waterworks","global_id":"1ddff79d-45ac-44b4-b47b-2fe7e7daffc3"}},{"type":"Feature","id":"u_fc_poi_water.3365","geometry":{"type":"Point","coordinates":[3.6611433,6.6008917]},"geometry_name":"geom","properties":{"state_code":"LA","source":"GRID","name":"Solar Power Motorized Borehole Public Water","ward_code":"LASIKU21","alt_name":null,"type":"Borehole","global_id":"1e05a4f0-3296-443a-a997-e7d1b1db98e4"}},{"type":"Feature","id":"u_fc_poi_water.3393","geometry":{"type":"Point","coordinates":[3.24528,6.5828783]},"geometry_name":"geom","properties":{"state_code":"LA","source":"GRID","name":"Tap Water 1","ward_code":"LASAMO15","alt_name":null,"type":"Borehole","global_id":"1e4d0609-0330-4b95-84e0-4b5276d2cb1e"}},{"type":"Feature","id":"u_fc_poi_water.3524","geometry":{"type":"Point","coordinates":[3.1510733,6.4903595]},"geometry_name":"geom","properties":{"state_code":"LA","source":"GRID","name":"Joseph Iyinolalekan Street Borehole Lagos Badagry Express Road","ward_code":"LASOJO13","alt_name":null,"type":"Borehole","global_id":"1f4ed0f1-a852-44db-8d5c-19aa4060f4a7"}},{"type":"Feature","id":"u_fc_poi_water.3529","geometry":{"type":"Point","coordinates":[3.3377144,6.4988494]},"geometry_name":"geom","properties":{"state_code":"LA","source":"GRID","name":"Aina Street Well Water","ward_code":"LASSUE15","alt_name":null,"type":"Well","global_id":"1f5e29be-fc61-41fc-9da6-d21d6c9ab4d7"}},{"type":"Feature","id":"u_fc_poi_water.3534","geometry":{"type":"Point","coordinates":[3.2620277,6.6393302]},"geometry_name":"geom","properties":{"state_code":"LA","source":"GRID","name":"St Marys Anglican Church Borehole","ward_code":"LASAMO06","alt_name":null,"type":"Borehole","global_id":"1f62f7bf-58b9-4721-9f34-fa249d06a655"}},{"type":"Feature","id":"u_fc_poi_water.3569","geometry":{"type":"Point","coordinates":[3.3520383,6.4680733]},"geometry_name":"geom","properties":{"state_code":"LA","source":"GRID","name":"Community Project","ward_code":"LASAPA07","alt_name":null,"type":"Borehole","global_id":"1fdb277d-f128-4d16-a50e-54bfff38777f"}},{"type":"Feature","id":"u_fc_poi_water.3572","geometry":{"type":"Point","coordinates":[3.3711818,6.4298382]},"geometry_name":"geom","properties":{"state_code":"LA","source":"GRID","name":"Irede Tap Water","ward_code":"LASAPA02","alt_name":null,"type":"Waterworks","global_id":"1fe1058c-1434-4e98-b948-e61a4071e458"}},{"type":"Feature","id":"u_fc_poi_water.3596","geometry":{"type":"Point","coordinates":[3.1811924,6.4582225]},"geometry_name":"geom","properties":{"state_code":"LA","source":"GRID","name":"Adeyemi Borehole","ward_code":"LASOJO14","alt_name":null,"type":"Borehole","global_id":"2018a477-3b29-46ef-be34-d76f089a7554"}},{"type":"Feature","id":"u_fc_poi_water.3716","geometry":{"type":"Point","coordinates":[3.0081267,6.475515]},"geometry_name":"geom","properties":{"state_code":"LA","source":"GRID","name":"Idojisu Tap Water","ward_code":"LASBDY08","alt_name":null,"type":"Waterworks","global_id":"21447d93-1b1e-44b9-83b8-e64664c3bcc5"}},{"type":"Feature","id":"u_fc_poi_water.3731","geometry":{"type":"Point","coordinates":[3.150317,6.459646]},"geometry_name":"geom","properties":{"state_code":"LA","source":"GRID","name":"Borehole Water 10 Akinniba Street Shibiri","ward_code":"LASOJO03","alt_name":null,"type":"Borehole","global_id":"216de4c4-ac97-40e8-beba-d1c9f0189d5b"}},{"type":"Feature","id":"u_fc_poi_water.3748","geometry":{"type":"Point","coordinates":[3.6744917,6.650295]},"geometry_name":"geom","properties":{"state_code":"LA","source":"GRID","name":"Olori Borehole","ward_code":"LASIKU14","alt_name":null,"type":"Borehole","global_id":"2188fe1e-5cb1-4841-91d7-b99111309357"}},{"type":"Feature","id":"u_fc_poi_water.3786","geometry":{"type":"Point","coordinates":[2.9936883,6.4354183]},"geometry_name":"geom","properties":{"state_code":"LA","source":"GRID","name":"Townhall Tap Water","ward_code":"LASBDY04","alt_name":null,"type":"Waterworks","global_id":"21ce2a6f-ace6-47d2-af76-371401d326d5"}},{"type":"Feature","id":"u_fc_poi_water.3799","geometry":{"type":"Point","coordinates":[3.2158997,6.5268609]},"geometry_name":"geom","properties":{"state_code":"LA","source":"GRID","name":"Public Borehole Water","ward_code":"LASAMO08","alt_name":null,"type":"Borehole","global_id":"21e85690-db1d-41fc-ac22-8bace2e344f2"}},{"type":"Feature","id":"u_fc_poi_water.3809","geometry":{"type":"Point","coordinates":[3.7110443,6.6453597]},"geometry_name":"geom","properties":{"state_code":"LA","source":"GRID","name":"Government Tap Water","ward_code":"LASEPE02","alt_name":null,"type":"Waterworks","global_id":"21f6e897-60e2-427c-90a7-5ef634732135"}},{"type":"Feature","id":"u_fc_poi_water.3835","geometry":{"type":"Point","coordinates":[3.2448617,6.5484417]},"geometry_name":"geom","properties":{"state_code":"LA","source":"GRID","name":"Public Borehole Water 1","ward_code":"LASAMO23","alt_name":null,"type":"Borehole","global_id":"223de897-160f-4485-94b8-1d0b1356ae15"}},{"type":"Feature","id":"u_fc_poi_water.3851","geometry":{"type":"Point","coordinates":[3.3823967,6.5206095]},"geometry_name":"geom","properties":{"state_code":"LA","source":"GRID","name":"Borehole Obadina Street","ward_code":"LASLMD02","alt_name":null,"type":"Borehole","global_id":"2259b202-49f7-4567-9e33-ba2c3025a434"}},{"type":"Feature","id":"u_fc_poi_water.3897","geometry":{"type":"Point","coordinates":[3.597529,6.6792536]},"geometry_name":"geom","properties":{"state_code":"LA","source":"GRID","name":"Olajire Street Borehole","ward_code":"LASIKU27","alt_name":null,"type":"Borehole","global_id":"22da64d1-0f2e-4600-805f-84decc14d065"}},{"type":"Feature","id":"u_fc_poi_water.3908","geometry":{"type":"Point","coordinates":[3.2549018,6.4387872]},"geometry_name":"geom","properties":{"state_code":"LA","source":"GRID","name":"Kensington Street Borehole","ward_code":"LASAON01","alt_name":null,"type":"Borehole","global_id":"22f27432-a6bd-4e5e-9b0a-06dffd616031"}},{"type":"Feature","id":"u_fc_poi_water.3935","geometry":{"type":"Point","coordinates":[3.2531353,6.6051825]},"geometry_name":"geom","properties":{"state_code":"LA","source":"GRID","name":"Public Borehole Water","ward_code":"LASAMO26","alt_name":null,"type":"Borehole","global_id":"2333e6f0-bdcd-4be5-b787-a16fa1f33beb"}},{"type":"Feature","id":"u_fc_poi_water.3944","geometry":{"type":"Point","coordinates":[3.1430784,6.4527527]},"geometry_name":"geom","properties":{"state_code":"LA","source":"GRID","name":"Borehole Water Oto Awori","ward_code":"LASOJO03","alt_name":null,"type":"Borehole","global_id":"2341a3d3-e366-458a-a5e6-d5cef2880e93"}},{"type":"Feature","id":"u_fc_poi_water.3983","geometry":{"type":"Point","coordinates":[3.2898898,6.6310702]},"geometry_name":"geom","properties":{"state_code":"LA","source":"GRID","name":"49 Tiamiyu Street Borehole","ward_code":"LASAMO31","alt_name":null,"type":"Borehole","global_id":"239fdc88-e3e3-4e53-bb41-2144e72a071f"}},{"type":"Feature","id":"u_fc_poi_water.3986","geometry":{"type":"Point","coordinates":[4.054273,6.4199785]},"geometry_name":"geom","properties":{"state_code":"LA","source":"GRID","name":"Roman Catholic Well","ward_code":"LASIUI06","alt_name":null,"type":"Well","global_id":"23a03a4f-f16c-4fc1-b492-9bbcf16998f2"}},{"type":"Feature","id":"u_fc_poi_water.4025","geometry":{"type":"Point","coordinates":[3.2461133,6.564655]},"geometry_name":"geom","properties":{"state_code":"LA","source":"GRID","name":"United Youth Development Borehole","ward_code":"LASAMO25","alt_name":null,"type":"Borehole","global_id":"2410fa6e-e44a-4d2c-85bc-d8a13482c24f"}},{"type":"Feature","id":"u_fc_poi_water.4037","geometry":{"type":"Point","coordinates":[3.372155,6.48255]},"geometry_name":"geom","properties":{"state_code":"LA","source":"GRID","name":"Ademuyiwa Market Tap Water","ward_code":"LASLMD08","alt_name":null,"type":"Waterworks","global_id":"24251302-7777-4f71-9f65-1e488a0224e0"}},{"type":"Feature","id":"u_fc_poi_water.4125","geometry":{"type":"Point","coordinates":[3.048185,6.4945567]},"geometry_name":"geom","properties":{"state_code":"LA","source":"GRID","name":"Well Water Ile Funfun","ward_code":"LASBDY11","alt_name":null,"type":"Well","global_id":"24ebe58a-2a02-467a-b740-3a5ad59eeb30"}},{"type":"Feature","id":"u_fc_poi_water.4151","geometry":{"type":"Point","coordinates":[3.9904893,6.6715975]},"geometry_name":"geom","properties":{"state_code":"LA","source":"GRID","name":"Odoshiwola Road Borehole","ward_code":"LASEPE13","alt_name":null,"type":"Waterworks","global_id":"251bac1a-2642-4924-8227-b123ddcea7b9"}},{"type":"Feature","id":"u_fc_poi_water.4163","geometry":{"type":"Point","coordinates":[3.3082433,6.54671]},"geometry_name":"geom","properties":{"state_code":"LA","source":"GRID","name":"Edagbeja Public Borehole Water","ward_code":"LASOIO09","alt_name":null,"type":"Borehole","global_id":"253b78c8-f9d3-497a-9306-d03cdef63427"}},{"type":"Feature","id":"u_fc_poi_water.4238","geometry":{"type":"Point","coordinates":[3.7338329,6.667121]},"geometry_name":"geom","properties":{"state_code":"LA","source":"GRID","name":"Private Borehole Water","ward_code":"LASEPE05","alt_name":null,"type":"Borehole","global_id":"25d3891c-15a0-4b29-acb8-4aede49a476d"}},{"type":"Feature","id":"u_fc_poi_water.4243","geometry":{"type":"Point","coordinates":[3.3290133,6.453345]},"geometry_name":"geom","properties":{"state_code":"LA","source":"GRID","name":"Public Well Water","ward_code":"LASATO07","alt_name":null,"type":"Well","global_id":"25e9fd4a-6fd2-4609-9446-742d9c3176e9"}},{"type":"Feature","id":"u_fc_poi_water.4283","geometry":{"type":"Point","coordinates":[3.2927183,6.6549667]},"geometry_name":"geom","properties":{"state_code":"LA","source":"GRID","name":"Thomas Olubunmi Street Tap Water","ward_code":"LASAMO05","alt_name":null,"type":"Waterworks","global_id":"2650246a-c42f-4638-a742-fceb88e55a8e"}},{"type":"Feature","id":"u_fc_poi_water.4300","geometry":{"type":"Point","coordinates":[3.5475947,6.569602]},"geometry_name":"geom","properties":{"state_code":"LA","source":"GRID","name":"Bola Balogun Borehole Water","ward_code":"LASIKU01","alt_name":null,"type":"Borehole","global_id":"2677ff12-e100-485b-8d85-7e2dde43f35c"}},{"type":"Feature","id":"u_fc_poi_water.4334","geometry":{"type":"Point","coordinates":[3.1424098,6.4189395]},"geometry_name":"geom","properties":{"state_code":"LA","source":"GRID","name":"Borehole Water Irewe Police Post Irewe Community","ward_code":"LASOJO09","alt_name":null,"type":"Borehole","global_id":"26cf82bc-3b80-445d-b18d-687004b4a0fd"}},{"type":"Feature","id":"u_fc_poi_water.4346","geometry":{"type":"Point","coordinates":[3.5542726,6.5393383]},"geometry_name":"geom","properties":{"state_code":"LA","source":"GRID","name":"Aremu Well","ward_code":"LASIKU19","alt_name":null,"type":"Well","global_id":"26e40330-3d83-4a3d-96a5-57b579d56b0c"}},{"type":"Feature","id":"u_fc_poi_water.4364","geometry":{"type":"Point","coordinates":[3.0490672,6.4942355]},"geometry_name":"geom","properties":{"state_code":"LA","source":"GRID","name":"Ile Funfun Borehole","ward_code":"LASBDY11","alt_name":null,"type":"Borehole","global_id":"271202a8-81d2-4f3e-b57d-a5d7cd0f5e93"}},{"type":"Feature","id":"u_fc_poi_water.4388","geometry":{"type":"Point","coordinates":[3.7008132,6.6298405]},"geometry_name":"geom","properties":{"state_code":"LA","source":"GRID","name":"Ogundeyin Borehole Water","ward_code":"LASEPE02","alt_name":null,"type":"Waterworks","global_id":"274aa8de-3136-48cd-9fec-6c340d2cf19e"}},{"type":"Feature","id":"u_fc_poi_water.4390","geometry":{"type":"Point","coordinates":[3.2624717,6.440445]},"geometry_name":"geom","properties":{"state_code":"LA","source":"GRID","name":"33 Alebiosun Road Borehole","ward_code":"LASAON08","alt_name":null,"type":"Borehole","global_id":"274d993f-5b78-47ba-b552-23c1c1d3b0ae"}},{"type":"Feature","id":"u_fc_poi_water.4401","geometry":{"type":"Point","coordinates":[3.1805367,6.457345]},"geometry_name":"geom","properties":{"state_code":"LA","source":"GRID","name":"Ubiaro Borehole","ward_code":"LASOJO14","alt_name":null,"type":"Borehole","global_id":"275b9def-a39a-4546-bdf2-c99a9324e0d2"}},{"type":"Feature","id":"u_fc_poi_water.4453","geometry":{"type":"Point","coordinates":[3.234365,6.4536817]},"geometry_name":"geom","properties":{"state_code":"LA","source":"GRID","name":"29 Godwin Nneke Street Borehole Abule Osun","ward_code":"LASAON01","alt_name":null,"type":"Borehole","global_id":"27d53854-19c2-4fb6-9b72-8212ec96c7f6"}},{"type":"Feature","id":"u_fc_poi_water.4478","geometry":{"type":"Point","coordinates":[3.2985002,6.4694004]},"geometry_name":"geom","properties":{"state_code":"LA","source":"GRID","name":"Borehole Water Ifesowapo Abule Egun","ward_code":"LASAON04","alt_name":null,"type":"Borehole","global_id":"28109f76-c779-4023-a3d6-72271be91f50"}},{"type":"Feature","id":"u_fc_poi_water.4497","geometry":{"type":"Point","coordinates":[4.0222559,6.423015]},"geometry_name":"geom","properties":{"state_code":"LA","source":"GRID","name":"Idiakoko Street Well","ward_code":"LASIUI06","alt_name":null,"type":"Well","global_id":"283a3c53-782b-45a9-97bf-aff911d5c4ca"}},{"type":"Feature","id":"u_fc_poi_water.4514","geometry":{"type":"Point","coordinates":[3.1829849,6.4602613]},"geometry_name":"geom","properties":{"state_code":"LA","source":"GRID","name":"Oshuakinde Borehole","ward_code":"LASOJO14","alt_name":null,"type":"Borehole","global_id":"2856180f-4141-4aba-814c-d722c2d61b0f"}},{"type":"Feature","id":"u_fc_poi_water.4562","geometry":{"type":"Point","coordinates":[3.3329631,6.5181473]},"geometry_name":"geom","properties":{"state_code":"LA","source":"GRID","name":"Baale Street Borehole","ward_code":"LASOIO13","alt_name":null,"type":"Borehole","global_id":"28bb6b1b-a74d-43cc-b163-066c1281702a"}},{"type":"Feature","id":"u_fc_poi_water.4576","geometry":{"type":"Point","coordinates":[3.1422703,6.4605946]},"geometry_name":"geom","properties":{"state_code":"LA","source":"GRID","name":"Tap Water Shibiri","ward_code":"LASOJO03","alt_name":null,"type":"Waterworks","global_id":"28dd292b-5ee6-41a7-9f08-fba4979b0611"}},{"type":"Feature","id":"u_fc_poi_water.4623","geometry":{"type":"Point","coordinates":[3.1205683,6.496275]},"geometry_name":"geom","properties":{"state_code":"LA","source":"GRID","name":"Vesper Borehole Water Iyana Oba Lagos Badagry Express Road","ward_code":"LASOJO06","alt_name":null,"type":"Borehole","global_id":"294f2500-0e62-4ef5-987d-737930d6b15e"}},{"type":"Feature","id":"u_fc_poi_water.4632","geometry":{"type":"Point","coordinates":[3.3553633,6.4642942]},"geometry_name":"geom","properties":{"state_code":"LA","source":"GRID","name":"Borehole","ward_code":"LASATO05","alt_name":null,"type":"Waterworks","global_id":"296705d5-b6d6-44a7-bb86-4f8be163c9d0"}},{"type":"Feature","id":"u_fc_poi_water.4661","geometry":{"type":"Point","coordinates":[3.9869301,6.6563769]},"geometry_name":"geom","properties":{"state_code":"LA","source":"GRID","name":"Chief Jkot Odumosu Tap Water","ward_code":"LASEPE15","alt_name":null,"type":"Waterworks","global_id":"29a102fe-9828-475c-bdbc-322aa704fd28"}},{"type":"Feature","id":"u_fc_poi_water.4671","geometry":{"type":"Point","coordinates":[3.378735,6.6096217]},"geometry_name":"geom","properties":{"state_code":"LA","source":"GRID","name":"Redeemed Church Tap Water","ward_code":"LASKSE04","alt_name":null,"type":"Waterworks","global_id":"29b53a32-8b57-4e28-a591-fc41f9f52180"}},{"type":"Feature","id":"u_fc_poi_water.4672","geometry":{"type":"Point","coordinates":[3.2962467,6.4729044]},"geometry_name":"geom","properties":{"state_code":"LA","source":"GRID","name":"Ghana Street Water Amuwo Odofin","ward_code":"LASAON04","alt_name":null,"type":"Well","global_id":"29b93400-aef8-4309-816f-c629298e8010"}},{"type":"Feature","id":"u_fc_poi_water.4716","geometry":{"type":"Point","coordinates":[4.02028,6.4259767]},"geometry_name":"geom","properties":{"state_code":"LA","source":"GRID","name":"School Borehole","ward_code":"LASIUI06","alt_name":null,"type":"Borehole","global_id":"2a1d6217-2b53-4c8b-851b-897769b3edb9"}},{"type":"Feature","id":"u_fc_poi_water.4729","geometry":{"type":"Point","coordinates":[3.3300658,6.476727]},"geometry_name":"geom","properties":{"state_code":"LA","source":"GRID","name":"Ogungbesan Tap Water","ward_code":"LASSUE09","alt_name":null,"type":"Waterworks","global_id":"2a3de047-38a5-4c18-8cc2-47b1ac110cc9"}},{"type":"Feature","id":"u_fc_poi_water.4766","geometry":{"type":"Point","coordinates":[3.3325391,6.4763988]},"geometry_name":"geom","properties":{"state_code":"LA","source":"GRID","name":"Coker Tap Water","ward_code":"LASSUE09","alt_name":null,"type":"Waterworks","global_id":"2a88144f-6f55-40fb-9701-fdfb81e7b768"}},{"type":"Feature","id":"u_fc_poi_water.4783","geometry":{"type":"Point","coordinates":[3.9867221,6.6527635]},"geometry_name":"geom","properties":{"state_code":"LA","source":"GRID","name":"Sir Michael Otedola Tap Water","ward_code":"LASEPE15","alt_name":null,"type":"Waterworks","global_id":"2aba533d-5b4e-4d05-b50a-afab202b9272"}},{"type":"Feature","id":"u_fc_poi_water.4812","geometry":{"type":"Point","coordinates":[3.39426,6.5304817]},"geometry_name":"geom","properties":{"state_code":"LA","source":"GRID","name":"Ajileye Tap Water","ward_code":"LASSMU02","alt_name":null,"type":"Waterworks","global_id":"2b07fc19-7110-4fcd-afa9-1942697f0347"}},{"type":"Feature","id":"u_fc_poi_water.4846","geometry":{"type":"Point","coordinates":[3.1305333,6.4574208]},"geometry_name":"geom","properties":{"state_code":"LA","source":"GRID","name":"Adeoye Street Borehole","ward_code":"LASOJO03","alt_name":null,"type":"Borehole","global_id":"2b6e9a34-52e9-453f-ac71-edf862831e70"}},{"type":"Feature","id":"u_fc_poi_water.4855","geometry":{"type":"Point","coordinates":[3.5793361,6.6548989]},"geometry_name":"geom","properties":{"state_code":"LA","source":"GRID","name":"Ajagule Water Point 2","ward_code":"LASIKU12","alt_name":null,"type":"Waterworks","global_id":"2b7f80c4-5f9a-4719-8696-5a6af66e0ce4"}},{"type":"Feature","id":"u_fc_poi_water.4884","geometry":{"type":"Point","coordinates":[2.9744267,6.4546167]},"geometry_name":"geom","properties":{"state_code":"LA","source":"GRID","name":"Public Well 1","ward_code":"LASBDY07","alt_name":null,"type":"Well","global_id":"2bc5a50d-cba5-4eda-af91-b19ff7166fb1"}},{"type":"Feature","id":"u_fc_poi_water.4885","geometry":{"type":"Point","coordinates":[3.934315,6.4365683]},"geometry_name":"geom","properties":{"state_code":"LA","source":"GRID","name":"Akodo Community Borehole","ward_code":"LASIUI08","alt_name":null,"type":"Borehole","global_id":"2bc6559d-4ecf-4aad-912f-9c9a3335054d"}},{"type":"Feature","id":"u_fc_poi_water.4905","geometry":{"type":"Point","coordinates":[3.345164,6.6017605]},"geometry_name":"geom","properties":{"state_code":"LA","source":"GRID","name":"Lady Benedicta Olaiya Tap Water","ward_code":"LASIKA03","alt_name":null,"type":"Borehole","global_id":"2be30821-6884-44b0-9620-d11087a3336c"}},{"type":"Feature","id":"u_fc_poi_water.4923","geometry":{"type":"Point","coordinates":[3.8899924,6.4859758]},"geometry_name":"geom","properties":{"state_code":"LA","source":"GRID","name":"Obatedo Tap Water","ward_code":"LASIUI08","alt_name":null,"type":"Waterworks","global_id":"2c044e9e-a0c2-4ca4-9efb-4a91f5d64ea3"}},{"type":"Feature","id":"u_fc_poi_water.4941","geometry":{"type":"Point","coordinates":[3.2606123,6.5312293]},"geometry_name":"geom","properties":{"state_code":"LA","source":"GRID","name":"Adedoyin Borehole Water","ward_code":"LASAMO24","alt_name":null,"type":"Borehole","global_id":"2c4513ba-4b8d-4d6e-a512-e8d623dac383"}},{"type":"Feature","id":"u_fc_poi_water.4958","geometry":{"type":"Point","coordinates":[3.3500811,6.4646471]},"geometry_name":"geom","properties":{"state_code":"LA","source":"GRID","name":"Fatokun Street Tap Water 1","ward_code":"LASATO05","alt_name":null,"type":"Waterworks","global_id":"2c7498f6-0af8-4f6b-aa30-8085a65879f2"}},{"type":"Feature","id":"u_fc_poi_water.4959","geometry":{"type":"Point","coordinates":[3.2819536,6.5422446]},"geometry_name":"geom","properties":{"state_code":"LA","source":"GRID","name":"Lagos State Govt Mimis Try Of Rural Development Borehole Water","ward_code":"LASAMO20","alt_name":null,"type":"Borehole","global_id":"2c74d2dd-6605-4fb6-81a4-40d286c6d657"}},{"type":"Feature","id":"u_fc_poi_water.4972","geometry":{"type":"Point","coordinates":[3.180724,6.4662587]},"geometry_name":"geom","properties":{"state_code":"LA","source":"GRID","name":"White House Public Tap Water","ward_code":"LASOJO10","alt_name":null,"type":"Waterworks","global_id":"2c90b35a-fe73-4b2d-900b-f43440ab8182"}},{"type":"Feature","id":"u_fc_poi_water.5026","geometry":{"type":"Point","coordinates":[3.2639383,6.6542233]},"geometry_name":"geom","properties":{"state_code":"LA","source":"GRID","name":"Elshadai Street Tap Water","ward_code":"LASAMO06","alt_name":null,"type":"Borehole","global_id":"2d1e4c79-e3b0-4cc3-b8ea-d405b8f3486b"}},{"type":"Feature","id":"u_fc_poi_water.5036","geometry":{"type":"Point","coordinates":[3.358945,6.468535]},"geometry_name":"geom","properties":{"state_code":"LA","source":"GRID","name":"Akosile Tap Water","ward_code":"LASAPA06","alt_name":null,"type":"Waterworks","global_id":"2d2ccbb9-02a5-40af-9191-0cf955251be8"}},{"type":"Feature","id":"u_fc_poi_water.5065","geometry":{"type":"Point","coordinates":[3.9932132,6.6094799]},"geometry_name":"geom","properties":{"state_code":"LA","source":"GRID","name":"Christ Church Cands Street Borehole Water","ward_code":"LASEPE11","alt_name":null,"type":"Borehole","global_id":"2d6d487f-fcdf-4fff-beec-1a7ed05eba02"}},{"type":"Feature","id":"u_fc_poi_water.5068","geometry":{"type":"Point","coordinates":[3.5662442,6.6087325]},"geometry_name":"geom","properties":{"state_code":"LA","source":"GRID","name":"Ade Mathom Venture Borehole Water","ward_code":"LASIKU29","alt_name":null,"type":"Borehole","global_id":"2d77e184-3ff7-4937-bb24-c66636e9c10c"}},{"type":"Feature","id":"u_fc_poi_water.5098","geometry":{"type":"Point","coordinates":[3.9869632,6.6024466]},"geometry_name":"geom","properties":{"state_code":"LA","source":"GRID","name":"Land Lord Association Borehole Water Point","ward_code":"LASEPE11","alt_name":null,"type":"Borehole","global_id":"2da71918-2cd1-48f4-b024-f7a431a56837"}},{"type":"Feature","id":"u_fc_poi_water.5165","geometry":{"type":"Point","coordinates":[3.253255,6.5131783]},"geometry_name":"geom","properties":{"state_code":"LA","source":"GRID","name":"School Borehole Water","ward_code":"LASAMO24","alt_name":null,"type":"Waterworks","global_id":"2e3d0cca-9d94-4cf7-ac96-02efc935efcc"}},{"type":"Feature","id":"u_fc_poi_water.5171","geometry":{"type":"Point","coordinates":[3.77111,6.645435]},"geometry_name":"geom","properties":{"state_code":"LA","source":"GRID","name":"Tap Water 1","ward_code":"LASEPE17","alt_name":null,"type":"Waterworks","global_id":"2e469700-db54-487a-a673-d93da20376ec"}},{"type":"Feature","id":"u_fc_poi_water.5186","geometry":{"type":"Point","coordinates":[3.3421025,6.441028]},"geometry_name":"geom","properties":{"state_code":"LA","source":"GRID","name":"Public Tap Water","ward_code":"LASATO15","alt_name":null,"type":"Waterworks","global_id":"2e6e06ad-4cad-432d-a90b-56dbef876fb8"}},{"type":"Feature","id":"u_fc_poi_water.5204","geometry":{"type":"Point","coordinates":[3.172915,6.4802083]},"geometry_name":"geom","properties":{"state_code":"LA","source":"GRID","name":"Papa Chinenye Borehole","ward_code":"LASOJO01","alt_name":null,"type":"Waterworks","global_id":"2e91255a-cb24-4bd8-87b2-7566788ae956"}},{"type":"Feature","id":"u_fc_poi_water.5205","geometry":{"type":"Point","coordinates":[3.93457,6.4360858]},"geometry_name":"geom","properties":{"state_code":"LA","source":"GRID","name":"Akodo Community Well","ward_code":"LASIUI08","alt_name":null,"type":"Well","global_id":"2e916d7b-3e8d-4a5b-8904-6c933e7be7a6"}},{"type":"Feature","id":"u_fc_poi_water.5223","geometry":{"type":"Point","coordinates":[3.3014,6.5417588]},"geometry_name":"geom","properties":{"state_code":"LA","source":"GRID","name":"Rafiu Tijani Street Borehole","ward_code":"LASOIO09","alt_name":null,"type":"Borehole","global_id":"2eb6da82-17e9-4629-b301-fcc82e12e60d"}},{"type":"Feature","id":"u_fc_poi_water.5227","geometry":{"type":"Point","coordinates":[3.0219657,6.4840189]},"geometry_name":"geom","properties":{"state_code":"LA","source":"GRID","name":"Emmanuel Baptist Church Well Water","ward_code":"LASBDY13","alt_name":null,"type":"Well","global_id":"2eb8f152-6420-41b2-a098-51d29ec7577f"}},{"type":"Feature","id":"u_fc_poi_water.5238","geometry":{"type":"Point","coordinates":[3.4920382,6.6203333]},"geometry_name":"geom","properties":{"state_code":"LA","source":"GRID","name":"Aina Atoloye Street Tap Water Lowa Area","ward_code":"LASIKU28","alt_name":null,"type":"Waterworks","global_id":"2ec6e385-c3fc-476a-a9c8-1483fb653552"}},{"type":"Feature","id":"u_fc_poi_water.5249","geometry":{"type":"Point","coordinates":[3.7761916,6.5087907]},"geometry_name":"geom","properties":{"state_code":"LA","source":"GRID","name":"Iwajoba Borehole","ward_code":"LASEPE12","alt_name":null,"type":"Borehole","global_id":"2ed68160-1a61-4632-ae70-e78010a2aa9b"}},{"type":"Feature","id":"u_fc_poi_water.5279","geometry":{"type":"Point","coordinates":[3.3002262,6.5024252]},"geometry_name":"geom","properties":{"state_code":"LA","source":"GRID","name":"Community Road Borehole","ward_code":"LASOIO07","alt_name":null,"type":"Borehole","global_id":"2f2e8cea-6d14-4484-a32c-8528d000355a"}},{"type":"Feature","id":"u_fc_poi_water.5326","geometry":{"type":"Point","coordinates":[3.7716587,6.5076005]},"geometry_name":"geom","properties":{"state_code":"LA","source":"GRID","name":"Fadunye Borehole","ward_code":"LASEPE12","alt_name":null,"type":"Borehole","global_id":"2f90ebd3-c177-4858-9c21-00e4193190c1"}},{"type":"Feature","id":"u_fc_poi_water.5339","geometry":{"type":"Point","coordinates":[3.3944849,6.5429166]},"geometry_name":"geom","properties":{"state_code":"LA","source":"GRID","name":"Olaide Tap Water","ward_code":"LASSMU16","alt_name":null,"type":"Waterworks","global_id":"2fadd3a6-57be-4aa7-bbb4-c0f552a37848"}},{"type":"Feature","id":"u_fc_poi_water.5342","geometry":{"type":"Point","coordinates":[3.3334433,6.4607183]},"geometry_name":"geom","properties":{"state_code":"LA","source":"GRID","name":"Public Tap Water","ward_code":"LASATO03","alt_name":null,"type":"Waterworks","global_id":"2fbaa059-1f4f-4171-84d1-a61f2cc0ef10"}},{"type":"Feature","id":"u_fc_poi_water.5350","geometry":{"type":"Point","coordinates":[2.9589593,6.4113301]},"geometry_name":"geom","properties":{"state_code":"LA","source":"GRID","name":"Borehole","ward_code":"LASBDY04","alt_name":null,"type":"Borehole","global_id":"2fd3997a-fc2e-4c07-9e67-e76afcad4596"}},{"type":"Feature","id":"u_fc_poi_water.5385","geometry":{"type":"Point","coordinates":[3.3716297,6.5723169]},"geometry_name":"geom","properties":{"state_code":"LA","source":"GRID","name":"Abebi Tap Water","ward_code":"LASKSE13","alt_name":null,"type":"Waterworks","global_id":"303a2eb7-65f5-44b8-ae8e-59ef4b20b293"}},{"type":"Feature","id":"u_fc_poi_water.5393","geometry":{"type":"Point","coordinates":[3.2564368,6.5621679]},"geometry_name":"geom","properties":{"state_code":"LA","source":"GRID","name":"Lasg Rural Intervention Borehole Project","ward_code":"LASAMO25","alt_name":null,"type":"Borehole","global_id":"3049f945-17dc-4dad-9d04-2e7bc81872e8"}},{"type":"Feature","id":"u_fc_poi_water.5433","geometry":{"type":"Point","coordinates":[3.2090417,6.5511867]},"geometry_name":"geom","properties":{"state_code":"LA","source":"GRID","name":"Jesus Foundation Tap Water","ward_code":"LASAMO17","alt_name":null,"type":"Borehole","global_id":"30a09b8b-a8ef-4b01-88ee-9d5a089f5d81"}},{"type":"Feature","id":"u_fc_poi_water.5477","geometry":{"type":"Point","coordinates":[3.2636015,6.6666266]},"geometry_name":"geom","properties":{"state_code":"LA","source":"GRID","name":"Onigbanjo Borehole","ward_code":"LASAMO11","alt_name":null,"type":"Borehole","global_id":"310cd055-d06f-485d-b920-8ba4149dad7a"}},{"type":"Feature","id":"u_fc_poi_water.5496","geometry":{"type":"Point","coordinates":[3.3307396,6.5148811]},"geometry_name":"geom","properties":{"state_code":"LA","source":"GRID","name":"Temzy Street Borehole","ward_code":"LASOIO13","alt_name":null,"type":"Borehole","global_id":"313bc783-d629-4545-872c-e729caec0481"}},{"type":"Feature","id":"u_fc_poi_water.5575","geometry":{"type":"Point","coordinates":[3.6586261,6.6754467]},"geometry_name":"geom","properties":{"state_code":"LA","source":"GRID","name":"Iyeri Borehole Water","ward_code":"LASIKU18","alt_name":null,"type":"Borehole","global_id":"31fa40ae-6daf-45e7-bac1-3c237099afe5"}},{"type":"Feature","id":"u_fc_poi_water.5588","geometry":{"type":"Point","coordinates":[3.3903433,6.401745]},"geometry_name":"geom","properties":{"state_code":"LA","source":"GRID","name":"Tarway Bay Well","ward_code":"LASEOA19","alt_name":null,"type":"Well","global_id":"321c787d-23c7-439c-87e8-9c489c336343"}},{"type":"Feature","id":"u_fc_poi_water.5602","geometry":{"type":"Point","coordinates":[3.3948068,6.5350849]},"geometry_name":"geom","properties":{"state_code":"LA","source":"GRID","name":"Arobadade Tap Water","ward_code":"LASSMU10","alt_name":null,"type":"Waterworks","global_id":"322d9f57-1e8d-4da0-90ff-b75b0408e1a4"}},{"type":"Feature","id":"u_fc_poi_water.5630","geometry":{"type":"Point","coordinates":[3.3460093,6.4721497]},"geometry_name":"geom","properties":{"state_code":"LA","source":"GRID","name":"Adekunle Deen Private tap Water","ward_code":"LASAPA03","alt_name":null,"type":"Waterworks","global_id":"326badc4-2e94-42fd-8262-6746f20cd560"}},{"type":"Feature","id":"u_fc_poi_water.5638","geometry":{"type":"Point","coordinates":[3.2286094,6.5965915]},"geometry_name":"geom","properties":{"state_code":"LA","source":"GRID","name":"8 Oladele Street Borehole","ward_code":"LASAMO15","alt_name":null,"type":"Borehole","global_id":"327a0160-c2ec-4512-92aa-514724d88695"}},{"type":"Feature","id":"u_fc_poi_water.5706","geometry":{"type":"Point","coordinates":[3.202025,6.41964]},"geometry_name":"geom","properties":{"state_code":"LA","source":"GRID","name":"Ripple Height Borehole Iyagbe","ward_code":"LASAON05","alt_name":null,"type":"Borehole","global_id":"33284aa6-75ea-40f3-852e-70aa7051f3f5"}},{"type":"Feature","id":"u_fc_poi_water.5741","geometry":{"type":"Point","coordinates":[3.1518198,6.4654774]},"geometry_name":"geom","properties":{"state_code":"LA","source":"GRID","name":"Omoluabi Project Tap Water 2010","ward_code":"LASOJO07","alt_name":null,"type":"Waterworks","global_id":"338227d4-ee81-4dcc-8463-1a249966863d"}},{"type":"Feature","id":"u_fc_poi_water.5753","geometry":{"type":"Point","coordinates":[3.3589783,6.4696364]},"geometry_name":"geom","properties":{"state_code":"LA","source":"GRID","name":"Apapa Iganmu Street Borehole","ward_code":"LASAPA11","alt_name":null,"type":"Waterworks","global_id":"33a3f520-82f3-486e-9319-297716cc18f2"}},{"type":"Feature","id":"u_fc_poi_water.5789","geometry":{"type":"Point","coordinates":[3.3600198,6.5041145]},"geometry_name":"geom","properties":{"state_code":"LA","source":"GRID","name":"Gbaja Girls Secondary School Tap Water","ward_code":"LASSUE10","alt_name":null,"type":"Waterworks","global_id":"3406d26b-b38a-4c4c-b10f-ac01a6dbd3bc"}},{"type":"Feature","id":"u_fc_poi_water.5845","geometry":{"type":"Point","coordinates":[3.9855133,6.6516674]},"geometry_name":"geom","properties":{"state_code":"LA","source":"GRID","name":"Akintolas Water Tap","ward_code":"LASEPE15","alt_name":null,"type":"Waterworks","global_id":"348afd04-0ff6-4b4d-8a17-f4b6fef74539"}},{"type":"Feature","id":"u_fc_poi_water.5850","geometry":{"type":"Point","coordinates":[3.5906786,6.5646628]},"geometry_name":"geom","properties":{"state_code":"LA","source":"GRID","name":"Ikorodu Local Government Tap Water Ijede","ward_code":"LASIKU25","alt_name":null,"type":"Waterworks","global_id":"349e8aa3-dce0-4bd8-8435-989d6d2c67dc"}},{"type":"Feature","id":"u_fc_poi_water.5861","geometry":{"type":"Point","coordinates":[3.9878189,6.6526127]},"geometry_name":"geom","properties":{"state_code":"LA","source":"GRID","name":"Saosik Tap Water","ward_code":"LASEPE15","alt_name":null,"type":"Waterworks","global_id":"34af8e2e-2846-4a0e-b22e-d115a08afb19"}},{"type":"Feature","id":"u_fc_poi_water.6005","geometry":{"type":"Point","coordinates":[3.3059136,6.6042961]},"geometry_name":"geom","properties":{"state_code":"LA","source":"GRID","name":"Tap Water","ward_code":"LASAMO34","alt_name":null,"type":"Waterworks","global_id":"362c35df-ed80-47cd-9436-3e06798a67ce"}},{"type":"Feature","id":"u_fc_poi_water.6012","geometry":{"type":"Point","coordinates":[3.9908508,6.6755337]},"geometry_name":"geom","properties":{"state_code":"LA","source":"GRID","name":"Odosiwola Public Borehole Water Point","ward_code":"LASEPE13","alt_name":null,"type":"Borehole","global_id":"364049e0-23ae-478a-9165-a3868c8fd279"}},{"type":"Feature","id":"u_fc_poi_water.6024","geometry":{"type":"Point","coordinates":[3.72782,6.43027]},"geometry_name":"geom","properties":{"state_code":"LA","source":"GRID","name":"Ube World Bank Assisted Borehole","ward_code":"LASIUI04","alt_name":null,"type":"Borehole","global_id":"364f356b-c097-4446-b46b-814270ab6a35"}},{"type":"Feature","id":"u_fc_poi_water.6047","geometry":{"type":"Point","coordinates":[3.3596415,6.4999036]},"geometry_name":"geom","properties":{"state_code":"LA","source":"GRID","name":"Masalachi Tap Water Akerele Extension 3","ward_code":"LASSUE10","alt_name":null,"type":"Waterworks","global_id":"36827634-d5ff-429e-b94b-043e2eb3f497"}},{"type":"Feature","id":"u_fc_poi_water.6106","geometry":{"type":"Point","coordinates":[3.2802895,6.6074289]},"geometry_name":"geom","properties":{"state_code":"LA","source":"GRID","name":"Flocoh Estate Club Tap Water","ward_code":"LASAMO29","alt_name":null,"type":"Waterworks","global_id":"36f5eea0-b356-433a-ade0-e17b1f349c0f"}},{"type":"Feature","id":"u_fc_poi_water.6144","geometry":{"type":"Point","coordinates":[3.3677531,6.4666216]},"geometry_name":"geom","properties":{"state_code":"LA","source":"GRID","name":"Ijora Oloye Tap Water","ward_code":"LASAPA08","alt_name":null,"type":"Waterworks","global_id":"3752c976-f70e-4118-bb8f-b464f9c6ae8e"}},{"type":"Feature","id":"u_fc_poi_water.6150","geometry":{"type":"Point","coordinates":[3.123244,6.4764101]},"geometry_name":"geom","properties":{"state_code":"LA","source":"GRID","name":"Era Compound Borehole","ward_code":"LASOJO07","alt_name":null,"type":"Borehole","global_id":"3763acc9-2b27-4180-8983-4a505d8f2a82"}},{"type":"Feature","id":"u_fc_poi_water.6269","geometry":{"type":"Point","coordinates":[3.2289876,6.4580902]},"geometry_name":"geom","properties":{"state_code":"LA","source":"GRID","name":"Nurudeen Street Public Borehole Water","ward_code":"LASOJO08","alt_name":null,"type":"Borehole","global_id":"3864ce5e-6e7d-4342-b0e2-d074055bd99c"}},{"type":"Feature","id":"u_fc_poi_water.6270","geometry":{"type":"Point","coordinates":[3.2848333,6.65259]},"geometry_name":"geom","properties":{"state_code":"LA","source":"GRID","name":"Tap Water 2","ward_code":"LASAMO05","alt_name":null,"type":"Waterworks","global_id":"38652278-6fb3-4a8e-a477-35e30e12a86a"}},{"type":"Feature","id":"u_fc_poi_water.6304","geometry":{"type":"Point","coordinates":[3.24329,6.4960333]},"geometry_name":"geom","properties":{"state_code":"LA","source":"GRID","name":"Public Water Tap","ward_code":"LASAMO24","alt_name":null,"type":"Waterworks","global_id":"38ad90cd-1b09-4545-abac-6708ff7adc42"}},{"type":"Feature","id":"u_fc_poi_water.6309","geometry":{"type":"Point","coordinates":[3.958635,6.5814883]},"geometry_name":"geom","properties":{"state_code":"LA","source":"GRID","name":"Ponmile Tap Water","ward_code":"LASEPE03","alt_name":null,"type":"Waterworks","global_id":"38b2ef99-ca45-4a92-93d8-47b276621084"}},{"type":"Feature","id":"u_fc_poi_water.6315","geometry":{"type":"Point","coordinates":[3.2573089,6.498015]},"geometry_name":"geom","properties":{"state_code":"LA","source":"GRID","name":"Energy Commission Of Nigeria Borehole","ward_code":"LASAMO27","alt_name":null,"type":"Borehole","global_id":"38c1b34d-d91b-46f2-bd05-29d837235734"}},{"type":"Feature","id":"u_fc_poi_water.6316","geometry":{"type":"Point","coordinates":[3.3221927,6.5317265]},"geometry_name":"geom","properties":{"state_code":"LA","source":"GRID","name":"Agedegudu Public Borehole Water","ward_code":"LASOIO05","alt_name":null,"type":"Borehole","global_id":"38c1e913-37f7-40c4-bd3e-4f381d8a591b"}},{"type":"Feature","id":"u_fc_poi_water.6323","geometry":{"type":"Point","coordinates":[3.429825,6.60696]},"geometry_name":"geom","properties":{"state_code":"LA","source":"GRID","name":"Private Borehole Water","ward_code":"LASKSE14","alt_name":null,"type":"Borehole","global_id":"38cf3415-97f7-4aa5-b54d-25e7af01f63d"}},{"type":"Feature","id":"u_fc_poi_water.6430","geometry":{"type":"Point","coordinates":[3.3160016,6.502625]},"geometry_name":"geom","properties":{"state_code":"LA","source":"GRID","name":"Funsho Kunoshi Public Borehole Water","ward_code":"LASOIO18","alt_name":null,"type":"Borehole","global_id":"39e4872b-e149-4e85-b05f-5f612d3356c5"}},{"type":"Feature","id":"u_fc_poi_water.6431","geometry":{"type":"Point","coordinates":[3.279143,6.6209457]},"geometry_name":"geom","properties":{"state_code":"LA","source":"GRID","name":"Alabani Street Borehole","ward_code":"LASAMO04","alt_name":null,"type":"Borehole","global_id":"39e89d9b-4b03-48d7-b401-30ba9eba63b9"}},{"type":"Feature","id":"u_fc_poi_water.6453","geometry":{"type":"Point","coordinates":[3.2723408,6.5993901]},"geometry_name":"geom","properties":{"state_code":"LA","source":"GRID","name":"Tap Water 3","ward_code":"LASAMO16","alt_name":null,"type":"Waterworks","global_id":"3a232923-55a5-4c09-bd7c-d2edb45c820f"}},{"type":"Feature","id":"u_fc_poi_water.6538","geometry":{"type":"Point","coordinates":[3.3807983,6.4592367]},"geometry_name":"geom","properties":{"state_code":"LA","source":"GRID","name":"Elegbata Public Water Tap","ward_code":"LASLID15","alt_name":null,"type":"Waterworks","global_id":"3acc1ad0-5efa-4e30-878c-d8a2c0aa0cda"}},{"type":"Feature","id":"u_fc_poi_water.6557","geometry":{"type":"Point","coordinates":[3.286455,6.60039]},"geometry_name":"geom","properties":{"state_code":"LA","source":"GRID","name":"Tap Water 2","ward_code":"LASAMO21","alt_name":null,"type":"Waterworks","global_id":"3af4b161-9b25-4e1d-aae9-e65977579570"}},{"type":"Feature","id":"u_fc_poi_water.6587","geometry":{"type":"Point","coordinates":[3.1525746,6.4582437]},"geometry_name":"geom","properties":{"state_code":"LA","source":"GRID","name":"2 Prince Jones Street Rasaki Borehole","ward_code":"LASOJO03","alt_name":null,"type":"Borehole","global_id":"3b3215bf-6a89-4b77-a36e-a342699340d5"}},{"type":"Feature","id":"u_fc_poi_water.6589","geometry":{"type":"Point","coordinates":[3.1536433,6.48548]},"geometry_name":"geom","properties":{"state_code":"LA","source":"GRID","name":"Unity Estate Ketu Street Borehole Water Point","ward_code":"LASOJO13","alt_name":null,"type":"Borehole","global_id":"3b38abe7-0db7-4af3-9573-0f4165d4c5aa"}},{"type":"Feature","id":"u_fc_poi_water.6638","geometry":{"type":"Point","coordinates":[3.3248739,6.5308144]},"geometry_name":"geom","properties":{"state_code":"LA","source":"GRID","name":"Longest Public Borehole Water","ward_code":"LASOIO05","alt_name":null,"type":"Borehole","global_id":"3b9b7479-bac9-40f6-bd67-712b7f995f4c"}},{"type":"Feature","id":"u_fc_poi_water.6681","geometry":{"type":"Point","coordinates":[3.593925,6.5998833]},"geometry_name":"geom","properties":{"state_code":"LA","source":"GRID","name":"Tap Water","ward_code":"LASIKU24","alt_name":null,"type":"Waterworks","global_id":"3bf93056-416c-4bed-9ea6-5b9fe83ea264"}},{"type":"Feature","id":"u_fc_poi_water.6685","geometry":{"type":"Point","coordinates":[3.2655466,6.661145]},"geometry_name":"geom","properties":{"state_code":"LA","source":"GRID","name":"Ogun Oshun Rivers Basin Development Authority Borehole","ward_code":"LASAMO06","alt_name":null,"type":"Borehole","global_id":"3bfca4b6-b8ff-4534-8e03-c41d1a847072"}},{"type":"Feature","id":"u_fc_poi_water.6693","geometry":{"type":"Point","coordinates":[3.2827472,6.6750391]},"geometry_name":"geom","properties":{"state_code":"LA","source":"GRID","name":"Omisore Public Borehole Water","ward_code":"LASIOE08","alt_name":null,"type":"Borehole","global_id":"3c0cc9e5-54b9-4f31-8a35-cc7e159dffa9"}},{"type":"Feature","id":"u_fc_poi_water.6724","geometry":{"type":"Point","coordinates":[3.2376862,6.593634]},"geometry_name":"geom","properties":{"state_code":"LA","source":"GRID","name":"7 Borehole","ward_code":"LASAMO15","alt_name":null,"type":"Borehole","global_id":"3c50a744-ad61-4d30-935f-6f5f48559f67"}},{"type":"Feature","id":"u_fc_poi_water.6745","geometry":{"type":"Point","coordinates":[2.8522228,6.4232737]},"geometry_name":"geom","properties":{"state_code":"LA","source":"GRID","name":"Ganyigbo Topa Borehole","ward_code":"LASBDY06","alt_name":null,"type":"Borehole","global_id":"3c71d1eb-02a3-4580-93ab-1e52aa01770c"}},{"type":"Feature","id":"u_fc_poi_water.6775","geometry":{"type":"Point","coordinates":[3.8843118,6.6205754]},"geometry_name":"geom","properties":{"state_code":"LA","source":"GRID","name":"Ejirin Road Sekungba Borehole","ward_code":"LASEPE07","alt_name":null,"type":"Borehole","global_id":"3cb4852e-e8ed-40a9-972d-5e8eff5d4571"}},{"type":"Feature","id":"u_fc_poi_water.6780","geometry":{"type":"Point","coordinates":[3.7591918,6.4742315]},"geometry_name":"geom","properties":{"state_code":"LA","source":"GRID","name":"Public Tap Jehovah Witness Road","ward_code":"LASIUI05","alt_name":null,"type":"Waterworks","global_id":"3cba1498-69c5-4e7a-95b0-23189992e827"}},{"type":"Feature","id":"u_fc_poi_water.6793","geometry":{"type":"Point","coordinates":[3.2134192,6.5810117]},"geometry_name":"geom","properties":{"state_code":"LA","source":"GRID","name":"Seun Akinpelu Borehole Alhfatai Shittu","ward_code":"LASAMO15","alt_name":null,"type":"Borehole","global_id":"3cce06fa-1e8b-4d5b-9b0d-0fab5d632ea1"}},{"type":"Feature","id":"u_fc_poi_water.6872","geometry":{"type":"Point","coordinates":[3.3303047,6.4743489]},"geometry_name":"geom","properties":{"state_code":"LA","source":"GRID","name":"Coker Compound Well Water","ward_code":"LASSUE09","alt_name":null,"type":"Well","global_id":"3d890323-1fa6-44ec-9e71-705a10c43a66"}},{"type":"Feature","id":"u_fc_poi_water.6886","geometry":{"type":"Point","coordinates":[2.8607883,6.4411983]},"geometry_name":"geom","properties":{"state_code":"LA","source":"GRID","name":"Local Authority Primary School Borehole Water","ward_code":"LASBDY02","alt_name":null,"type":"Borehole","global_id":"3d9cafc1-607c-49dc-ae6d-d4b41febbd91"}},{"type":"Feature","id":"u_fc_poi_water.6894","geometry":{"type":"Point","coordinates":[3.1804767,6.502195]},"geometry_name":"geom","properties":{"state_code":"LA","source":"GRID","name":"Prince Oscar Oyeleye Borehole","ward_code":"LASOJO05","alt_name":null,"type":"Well","global_id":"3db2d793-0bc2-4aab-b78c-fffd753e356e"}},{"type":"Feature","id":"u_fc_poi_water.6959","geometry":{"type":"Point","coordinates":[2.9169017,6.4434067]},"geometry_name":"geom","properties":{"state_code":"LA","source":"GRID","name":"Ona Ore PublicTap Water","ward_code":"LASBDY03","alt_name":null,"type":"Waterworks","global_id":"3e311f71-ab87-46f4-91e8-b76634985414"}},{"type":"Feature","id":"u_fc_poi_water.6985","geometry":{"type":"Point","coordinates":[3.1499655,6.4567095]},"geometry_name":"geom","properties":{"state_code":"LA","source":"GRID","name":"57Akinniba Street Borehole Araromi Bishiri Ojo Lagos","ward_code":"LASOJO03","alt_name":null,"type":"Borehole","global_id":"3e65cf5a-3488-41ed-97f8-9daf27f5895a"}},{"type":"Feature","id":"u_fc_poi_water.7005","geometry":{"type":"Point","coordinates":[3.1478856,6.4571891]},"geometry_name":"geom","properties":{"state_code":"LA","source":"GRID","name":"Lagos State Government Solar Powered Modified Type A Water Scheme Ojomo Borehole","ward_code":"LASOJO03","alt_name":null,"type":"Borehole","global_id":"3ea29b82-c32d-4dfd-93fb-bfe9ff1cacb4"}},{"type":"Feature","id":"u_fc_poi_water.7042","geometry":{"type":"Point","coordinates":[3.2799501,6.5434922]},"geometry_name":"geom","properties":{"state_code":"LA","source":"GRID","name":"Bobagunwa Borehole Egbe Land","ward_code":"LASAMO20","alt_name":null,"type":"Borehole","global_id":"3efb87a4-96c0-42fb-b865-a184dc04e1a0"}},{"type":"Feature","id":"u_fc_poi_water.7082","geometry":{"type":"Point","coordinates":[3.7733035,6.6263801]},"geometry_name":"geom","properties":{"state_code":"LA","source":"GRID","name":"Public Tap","ward_code":"LASEPE17","alt_name":null,"type":"Waterworks","global_id":"3f4afe59-3c1a-4b98-ac6e-daf9e1fbd793"}},{"type":"Feature","id":"u_fc_poi_water.7152","geometry":{"type":"Point","coordinates":[2.71157,6.3795197]},"geometry_name":"geom","properties":{"state_code":"LA","source":"GRID","name":"Custom Quarters Road Public Borehole Water","ward_code":"LASBDY10","alt_name":null,"type":"Borehole","global_id":"3fec3bc6-22ae-459f-84cb-c197abaa3a59"}},{"type":"Feature","id":"u_fc_poi_water.7202","geometry":{"type":"Point","coordinates":[3.7308637,6.4306948]},"geometry_name":"geom","properties":{"state_code":"LA","source":"GRID","name":"Iwerekun Borehole","ward_code":"LASIUI04","alt_name":null,"type":"Borehole","global_id":"404c59d2-6837-4c2b-a311-490ae2eaf337"}},{"type":"Feature","id":"u_fc_poi_water.7207","geometry":{"type":"Point","coordinates":[3.5101795,6.6245404]},"geometry_name":"geom","properties":{"state_code":"LA","source":"GRID","name":"Alh Sariyu Giwa Borehole","ward_code":"LASIKU20","alt_name":null,"type":"Borehole","global_id":"4056c84d-5991-4c6a-a5f5-da7d8f333aab"}},{"type":"Feature","id":"u_fc_poi_water.7210","geometry":{"type":"Point","coordinates":[3.1759,6.4795933]},"geometry_name":"geom","properties":{"state_code":"LA","source":"GRID","name":"Ibrahim Close Tap Water","ward_code":"LASOJO01","alt_name":null,"type":"Waterworks","global_id":"4059f744-8d87-42d0-9891-26c10dce1ace"}},{"type":"Feature","id":"u_fc_poi_water.7212","geometry":{"type":"Point","coordinates":[3.3575767,6.46878]},"geometry_name":"geom","properties":{"state_code":"LA","source":"GRID","name":"Kadiri Street Borehole","ward_code":"LASAPA06","alt_name":null,"type":"Borehole","global_id":"405a7ec3-bdc9-431b-beb0-b3a6ace32150"}},{"type":"Feature","id":"u_fc_poi_water.7247","geometry":{"type":"Point","coordinates":[3.1505978,6.4581988]},"geometry_name":"geom","properties":{"state_code":"LA","source":"GRID","name":"36 Akinnmba Street Borehole","ward_code":"LASOJO03","alt_name":null,"type":"Borehole","global_id":"40a3a4ad-3d77-4ff7-9e24-0e2deeceb797"}},{"type":"Feature","id":"u_fc_poi_water.7267","geometry":{"type":"Point","coordinates":[3.2587156,6.6616236]},"geometry_name":"geom","properties":{"state_code":"LA","source":"GRID","name":"Community Tap Water Project","ward_code":"LASAMO11","alt_name":null,"type":"Waterworks","global_id":"40dfda05-b8de-46a6-8aac-b91e0f9d5a48"}},{"type":"Feature","id":"u_fc_poi_water.7337","geometry":{"type":"Point","coordinates":[3.5371317,6.6665067]},"geometry_name":"geom","properties":{"state_code":"LA","source":"GRID","name":"One Hotel Borehole Water Odo Nla","ward_code":"LASIKU03","alt_name":null,"type":"Borehole","global_id":"418b19d8-b944-4b25-8b46-47cc1eb83c28"}},{"type":"Feature","id":"u_fc_poi_water.7356","geometry":{"type":"Point","coordinates":[3.5327551,6.5902153]},"geometry_name":"geom","properties":{"state_code":"LA","source":"GRID","name":"Poroye Tap Water","ward_code":"LASIKU01","alt_name":null,"type":"Waterworks","global_id":"41b60dbe-f424-42d9-93dc-76b761512297"}},{"type":"Feature","id":"u_fc_poi_water.7377","geometry":{"type":"Point","coordinates":[3.110218,6.4980952]},"geometry_name":"geom","properties":{"state_code":"LA","source":"GRID","name":"Borehole Water Point Royal Bells Model School","ward_code":"LASOJO13","alt_name":null,"type":"Borehole","global_id":"41ecd48e-3a02-4d65-ac77-53779b60fda5"}},{"type":"Feature","id":"u_fc_poi_water.7392","geometry":{"type":"Point","coordinates":[3.3308238,6.5192629]},"geometry_name":"geom","properties":{"state_code":"LA","source":"GRID","name":"Dansa Borehole Ilasa","ward_code":"LASOIO13","alt_name":null,"type":"Borehole","global_id":"4205d523-19a6-4d06-bb78-cc81a7422bb1"}},{"type":"Feature","id":"u_fc_poi_water.7403","geometry":{"type":"Point","coordinates":[3.3592289,6.4716723]},"geometry_name":"geom","properties":{"state_code":"LA","source":"GRID","name":"Church Street Tap Water 1","ward_code":"LASAPA11","alt_name":null,"type":"Waterworks","global_id":"4223b776-87ae-4f27-b854-4010e4c2380a"}},{"type":"Feature","id":"u_fc_poi_water.7480","geometry":{"type":"Point","coordinates":[3.2690417,6.6981333]},"geometry_name":"geom","properties":{"state_code":"LA","source":"GRID","name":"Olugolden Plumber Water","ward_code":"LASIOE04","alt_name":null,"type":"Borehole","global_id":"42d964d9-e68d-480f-ad5b-b4016c7c050e"}},{"type":"Feature","id":"u_fc_poi_water.7507","geometry":{"type":"Point","coordinates":[3.1642534,6.4522362]},"geometry_name":"geom","properties":{"state_code":"LA","source":"GRID","name":"12 King Gbadebo Masebinu Street Borehole","ward_code":"LASOJO14","alt_name":null,"type":"Borehole","global_id":"431297af-ac7e-4590-aa1a-69d883338a3e"}},{"type":"Feature","id":"u_fc_poi_water.7520","geometry":{"type":"Point","coordinates":[3.7186736,6.4725347]},"geometry_name":"geom","properties":{"state_code":"LA","source":"GRID","name":"Wasiu Borehole","ward_code":"LASIUI04","alt_name":null,"type":"Well","global_id":"4343616e-95df-468d-a5c6-152089a21430"}},{"type":"Feature","id":"u_fc_poi_water.7542","geometry":{"type":"Point","coordinates":[3.227235,6.5079967]},"geometry_name":"geom","properties":{"state_code":"LA","source":"GRID","name":"Private Borehole Water","ward_code":"LASAMO24","alt_name":null,"type":"Borehole","global_id":"436b0bc2-79df-486f-a724-40f72bca8803"}},{"type":"Feature","id":"u_fc_poi_water.7574","geometry":{"type":"Point","coordinates":[3.25754,6.58438]},"geometry_name":"geom","properties":{"state_code":"LA","source":"GRID","name":"amiu Lawal Street Tap Water","ward_code":"LASAMO16","alt_name":null,"type":"Borehole","global_id":"43b18c10-3da8-4358-8fa6-6a4d726f04b9"}},{"type":"Feature","id":"u_fc_poi_water.7596","geometry":{"type":"Point","coordinates":[3.5884513,6.5673971]},"geometry_name":"geom","properties":{"state_code":"LA","source":"GRID","name":"Palm Avenue Ijede Tap Water","ward_code":"LASIKU25","alt_name":null,"type":"Waterworks","global_id":"43e82062-9fbb-4abc-9b7a-599740151b59"}},{"type":"Feature","id":"u_fc_poi_water.7647","geometry":{"type":"Point","coordinates":[3.5896906,6.5672247]},"geometry_name":"geom","properties":{"state_code":"LA","source":"GRID","name":"Prince Jaiyesimi Public Tap Water","ward_code":"LASIKU25","alt_name":null,"type":"Waterworks","global_id":"4471669c-f334-4b40-954e-655735f9d3cf"}},{"type":"Feature","id":"u_fc_poi_water.7650","geometry":{"type":"Point","coordinates":[3.9716699,6.5797791]},"geometry_name":"geom","properties":{"state_code":"LA","source":"GRID","name":"Bakare Road Borehole","ward_code":"LASEPE03","alt_name":null,"type":"Borehole","global_id":"44792df2-44a7-4bd6-b7ba-bc547f9f7ae5"}},{"type":"Feature","id":"u_fc_poi_water.7678","geometry":{"type":"Point","coordinates":[3.3320061,6.5191409]},"geometry_name":"geom","properties":{"state_code":"LA","source":"GRID","name":"Iwajowa Street Borehole","ward_code":"LASOIO13","alt_name":null,"type":"Borehole","global_id":"44c1aca6-6480-4d00-b8a6-ffab13f2edaa"}},{"type":"Feature","id":"u_fc_poi_water.7685","geometry":{"type":"Point","coordinates":[3.1817764,6.4601627]},"geometry_name":"geom","properties":{"state_code":"LA","source":"GRID","name":"Olajide Borehole","ward_code":"LASOJO14","alt_name":null,"type":"Borehole","global_id":"44cef8ff-5eb5-47c1-8dc5-9d47a3fb51b7"}},{"type":"Feature","id":"u_fc_poi_water.7702","geometry":{"type":"Point","coordinates":[3.1365633,6.4612967]},"geometry_name":"geom","properties":{"state_code":"LA","source":"GRID","name":"Rufia Arolohun Street Borehole","ward_code":"LASOJO07","alt_name":null,"type":"Borehole","global_id":"44df8f67-e8d3-4bcf-b740-4e7e9ca7d70a"}},{"type":"Feature","id":"u_fc_poi_water.7724","geometry":{"type":"Point","coordinates":[3.1159833,6.4942333]},"geometry_name":"geom","properties":{"state_code":"LA","source":"GRID","name":"Seriki House Tap Water","ward_code":"LASOJO13","alt_name":null,"type":"Waterworks","global_id":"45103fae-5d46-487c-96fd-80b12b2a6050"}},{"type":"Feature","id":"u_fc_poi_water.7725","geometry":{"type":"Point","coordinates":[3.2538183,6.619535]},"geometry_name":"geom","properties":{"state_code":"LA","source":"GRID","name":"Olufemi Borehole","ward_code":"LASAMO07","alt_name":null,"type":"Borehole","global_id":"45105aac-ba9e-457e-9b1b-c273c06d0c76"}},{"type":"Feature","id":"u_fc_poi_water.7753","geometry":{"type":"Point","coordinates":[3.3099516,6.5416939]},"geometry_name":"geom","properties":{"state_code":"LA","source":"GRID","name":"Oke Ogun Public Borehole Water Point","ward_code":"LASOIO12","alt_name":null,"type":"Borehole","global_id":"45378521-959d-4f6f-9034-f81a7629a2ae"}},{"type":"Feature","id":"u_fc_poi_water.7777","geometry":{"type":"Point","coordinates":[2.8887291,6.4338146]},"geometry_name":"geom","properties":{"state_code":"LA","source":"GRID","name":"Iluda Road Public Borehole Water","ward_code":"LASBDY03","alt_name":null,"type":"Borehole","global_id":"457a5d0b-72c2-4707-99b3-8bba9429c57b"}},{"type":"Feature","id":"u_fc_poi_water.7796","geometry":{"type":"Point","coordinates":[3.147237,6.4960151]},"geometry_name":"geom","properties":{"state_code":"LA","source":"GRID","name":"Arabic Tap Water","ward_code":"LASOJO06","alt_name":null,"type":"Waterworks","global_id":"45a02082-b589-48a4-b41d-1edd574fa085"}},{"type":"Feature","id":"u_fc_poi_water.7821","geometry":{"type":"Point","coordinates":[3.3464217,6.4763883]},"geometry_name":"geom","properties":{"state_code":"LA","source":"GRID","name":"Santos Public Tap Water","ward_code":"LASAPA03","alt_name":null,"type":"Waterworks","global_id":"45c20b3c-e0d2-419f-b02c-31aae9e5753a"}},{"type":"Feature","id":"u_fc_poi_water.7909","geometry":{"type":"Point","coordinates":[3.9843686,6.6203485]},"geometry_name":"geom","properties":{"state_code":"LA","source":"GRID","name":"Community Tap Water Ataka Igondo","ward_code":"LASEPE14","alt_name":null,"type":"Waterworks","global_id":"46b00814-80f4-47e1-89cc-fb67a7523dfb"}},{"type":"Feature","id":"u_fc_poi_water.7941","geometry":{"type":"Point","coordinates":[3.4102583,6.5781117]},"geometry_name":"geom","properties":{"state_code":"LA","source":"GRID","name":"Rotaract Tap Water","ward_code":"LASKSE01","alt_name":null,"type":"Waterworks","global_id":"46e92a95-4554-4980-b33a-fa7f1beb6af5"}},{"type":"Feature","id":"u_fc_poi_water.7948","geometry":{"type":"Point","coordinates":[3.2540735,6.6365306]},"geometry_name":"geom","properties":{"state_code":"LA","source":"GRID","name":"Shittu Public Water Tap Water","ward_code":"LASAMO07","alt_name":null,"type":"Waterworks","global_id":"46f8d870-8317-468e-8342-f8d1db29ca33"}},{"type":"Feature","id":"u_fc_poi_water.7987","geometry":{"type":"Point","coordinates":[3.2702486,6.6446054]},"geometry_name":"geom","properties":{"state_code":"LA","source":"GRID","name":"Alh Kareem Borehole Water","ward_code":"LASAMO06","alt_name":null,"type":"Borehole","global_id":"4755a791-d66d-48a6-92f8-4e9b4e8ec631"}},{"type":"Feature","id":"u_fc_poi_water.8029","geometry":{"type":"Point","coordinates":[3.1530061,6.4874897]},"geometry_name":"geom","properties":{"state_code":"LA","source":"GRID","name":"Ministry Of Rural Development Water Scheme Project Borehole Ketu Community","ward_code":"LASOJO01","alt_name":null,"type":"Borehole","global_id":"47bc21d7-d97b-4514-aa50-f484ad5d93ff"}},{"type":"Feature","id":"u_fc_poi_water.8036","geometry":{"type":"Point","coordinates":[4.2083507,6.3913778]},"geometry_name":"geom","properties":{"state_code":"LA","source":"GRID","name":"Okun Ise Igbodile Community Well","ward_code":"LASIUI03","alt_name":null,"type":"Well","global_id":"47c70a8b-3e8d-432b-a483-55b11926ecd0"}},{"type":"Feature","id":"u_fc_poi_water.8073","geometry":{"type":"Point","coordinates":[3.9811029,6.6741162]},"geometry_name":"geom","properties":{"state_code":"LA","source":"GRID","name":"Baale Omida Borehole Water","ward_code":"LASEPE15","alt_name":null,"type":"Borehole","global_id":"481eeeea-30e9-4a07-85ba-59047876ea7d"}},{"type":"Feature","id":"u_fc_poi_water.8081","geometry":{"type":"Point","coordinates":[3.266834,6.6467277]},"geometry_name":"geom","properties":{"state_code":"LA","source":"GRID","name":"Cands Tap Water","ward_code":"LASAMO06","alt_name":null,"type":"Waterworks","global_id":"48311916-7ca4-4e53-a8a4-955b72804884"}},{"type":"Feature","id":"u_fc_poi_water.8103","geometry":{"type":"Point","coordinates":[3.3841533,6.404335]},"geometry_name":"geom","properties":{"state_code":"LA","source":"GRID","name":"Lite House Well Abagbo","ward_code":"LASEOA19","alt_name":null,"type":"Well","global_id":"4852593a-e9e3-449b-97a3-e49052640f76"}},{"type":"Feature","id":"u_fc_poi_water.8121","geometry":{"type":"Point","coordinates":[3.39393,6.5352897]},"geometry_name":"geom","properties":{"state_code":"LA","source":"GRID","name":"Arobadade Borehole","ward_code":"LASSMU10","alt_name":null,"type":"Borehole","global_id":"48780b82-b29d-4e99-b0e9-7bbb5e6db6f2"}},{"type":"Feature","id":"u_fc_poi_water.8127","geometry":{"type":"Point","coordinates":[3.4185229,6.6056763]},"geometry_name":"geom","properties":{"state_code":"LA","source":"GRID","name":"Best Water Borehole","ward_code":"LASKSE14","alt_name":null,"type":"Borehole","global_id":"4883f2cb-7273-4578-b381-a219c9d7a35a"}},{"type":"Feature","id":"u_fc_poi_water.8129","geometry":{"type":"Point","coordinates":[3.29188,6.5960217]},"geometry_name":"geom","properties":{"state_code":"LA","source":"GRID","name":"Borehole 1","ward_code":"LASAMO19","alt_name":null,"type":"Borehole","global_id":"4885189b-ee20-4bcc-80ca-8d15401afdd8"}},{"type":"Feature","id":"u_fc_poi_water.8132","geometry":{"type":"Point","coordinates":[3.35264,6.4695103]},"geometry_name":"geom","properties":{"state_code":"LA","source":"GRID","name":"Alhaja Funmilayo Akande Mohammed Public Borehole","ward_code":"LASAPA07","alt_name":null,"type":"Borehole","global_id":"4891df50-18dd-4b1f-acfb-ab276fef5caa"}},{"type":"Feature","id":"u_fc_poi_water.8158","geometry":{"type":"Point","coordinates":[3.2827667,6.684955]},"geometry_name":"geom","properties":{"state_code":"LA","source":"GRID","name":"Kudirat Taps","ward_code":"LASIOE03","alt_name":null,"type":"Borehole","global_id":"48d269f8-d269-48d5-8b82-959a3b3da70d"}},{"type":"Feature","id":"u_fc_poi_water.8204","geometry":{"type":"Point","coordinates":[3.5645536,6.680513]},"geometry_name":"geom","properties":{"state_code":"LA","source":"GRID","name":"Okusiye 11 Tap Water","ward_code":"LASIKU12","alt_name":null,"type":"Waterworks","global_id":"4943510f-b2a7-44b5-966f-e6525c396836"}},{"type":"Feature","id":"u_fc_poi_water.8236","geometry":{"type":"Point","coordinates":[3.2875794,6.6356388]},"geometry_name":"geom","properties":{"state_code":"LA","source":"GRID","name":"32 Ola Martins Borehole Water","ward_code":"LASAMO31","alt_name":null,"type":"Borehole","global_id":"498c6aea-8bf2-4724-9b8f-c5b275344730"}},{"type":"Feature","id":"u_fc_poi_water.8237","geometry":{"type":"Point","coordinates":[3.2672906,6.5442087]},"geometry_name":"geom","properties":{"state_code":"LA","source":"GRID","name":"Liasu Street Borehole","ward_code":"LASAMO25","alt_name":null,"type":"Borehole","global_id":"498d15c2-398d-4588-91a6-8faf52cbf6be"}},{"type":"Feature","id":"u_fc_poi_water.8245","geometry":{"type":"Point","coordinates":[3.3176365,6.6106573]},"geometry_name":"geom","properties":{"state_code":"LA","source":"GRID","name":"Lagos State Poverty Alleviation Borehole","ward_code":"LASAGG03","alt_name":null,"type":"Borehole","global_id":"4998f656-70ce-4796-916d-f45ee036ee13"}},{"type":"Feature","id":"u_fc_poi_water.8247","geometry":{"type":"Point","coordinates":[3.2354993,6.5953242]},